{"type":"FeatureCollection","features":[{"type":"Feature","id":"trailheads_cotrex02192019.1","geometry":{"type":"Point","coordinates":[-105.68364311,39.77252787]},"geometry_name":"the_geom","properties":{"ogc_fid":1,"feature_id":61258,"place_id":50,"name":"Bill Moore Lake/Empire Loop Trailhead","alt_name":"","type":"Trailhead","bathrooms":"no","fee":"no","water":"no","manager":"Clear Creek County"}},{"type":"Feature","id":"trailheads_cotrex02192019.2","geometry":{"type":"Point","coordinates":[-105.73227576,39.69430301]},"geometry_name":"the_geom","properties":{"ogc_fid":2,"feature_id":61255,"place_id":47,"name":"Argentine Central Grade Trailhead","alt_name":"","type":"Trailhead","bathrooms":"no","fee":"no","water":"no","manager":"Clear Creek County"}},{"type":"Feature","id":"trailheads_cotrex02192019.3","geometry":{"type":"Point","coordinates":[-105.69942576,39.68786504]},"geometry_name":"the_geom","properties":{"ogc_fid":3,"feature_id":61254,"place_id":46,"name":"Silverdale Trailhead","alt_name":"","type":"Trailhead","bathrooms":"no","fee":"no","water":"no","manager":"Town of Georgetown"}},{"type":"Feature","id":"trailheads_cotrex02192019.4","geometry":{"type":"Point","coordinates":[-105.70192796,39.68275019]},"geometry_name":"the_geom","properties":{"ogc_fid":4,"feature_id":61253,"place_id":45,"name":"Waldorf Trailhead","alt_name":"","type":"Trailhead","bathrooms":"no","fee":"no","water":"no","manager":"Clear Creek County"}},{"type":"Feature","id":"trailheads_cotrex02192019.5","geometry":{"type":"Point","coordinates":[-105.68389855,39.73697264]},"geometry_name":"the_geom","properties":{"ogc_fid":5,"feature_id":61252,"place_id":44,"name":"Silver Creek Trailhead","alt_name":"","type":"Trailhead","bathrooms":"no","fee":"no","water":"no","manager":"Clear Creek County"}},{"type":"Feature","id":"trailheads_cotrex02192019.6","geometry":{"type":"Point","coordinates":[-105.63348691,39.76291943]},"geometry_name":"the_geom","properties":{"ogc_fid":6,"feature_id":61251,"place_id":43,"name":"Silver Creek Trailhead","alt_name":"","type":"Trailhead","bathrooms":"no","fee":"no","water":"no","manager":"Clear Creek County"}},{"type":"Feature","id":"trailheads_cotrex02192019.7","geometry":{"type":"Point","coordinates":[-105.72549092,39.69794064]},"geometry_name":"the_geom","properties":{"ogc_fid":7,"feature_id":61250,"place_id":42,"name":"7:30 Mine Road Trailhead","alt_name":"","type":"Trailhead","bathrooms":"no","fee":"no","water":"no","manager":"Clear Creek County"}},{"type":"Feature","id":"trailheads_cotrex02192019.8","geometry":{"type":"Point","coordinates":[-108.98404074,38.67844958]},"geometry_name":"the_geom","properties":{"ogc_fid":8,"feature_id":202865,"place_id":21552,"name":"Gateway Trailhead","alt_name":"","type":"Trailhead","bathrooms":"","fee":"","water":"","manager":"BLM Grand Junction Field Office"}},{"type":"Feature","id":"trailheads_cotrex02192019.9","geometry":{"type":"Point","coordinates":[-105.40678645,39.74309488]},"geometry_name":"the_geom","properties":{"ogc_fid":9,"feature_id":61245,"place_id":37,"name":"Oxbow Trailhead","alt_name":"","type":"Trailhead","bathrooms":"no","fee":"no","water":"no","manager":"Clear Creek County"}},{"type":"Feature","id":"trailheads_cotrex02192019.10","geometry":{"type":"Point","coordinates":[-107.43574124,39.14769246]},"geometry_name":"the_geom","properties":{"ogc_fid":10,"feature_id":1823198,"place_id":19458,"name":"Clear Fork Trailhead","alt_name":"","type":"Trailhead","bathrooms":"no","fee":"no","water":"no","manager":"USFS Paonia Ranger District"}},{"type":"Feature","id":"trailheads_cotrex02192019.11","geometry":{"type":"Point","coordinates":[-107.27663788,38.97832375]},"geometry_name":"the_geom","properties":{"ogc_fid":11,"feature_id":1823213,"place_id":19459,"name":"Raggeds Trailhead","alt_name":"","type":"Trailhead","bathrooms":"no","fee":"no","water":"no","manager":"USFS Paonia Ranger District"}},{"type":"Feature","id":"trailheads_cotrex02192019.12","geometry":{"type":"Point","coordinates":[-105.04131717,39.5669273]},"geometry_name":"the_geom","properties":{"ogc_fid":12,"feature_id":61348,"place_id":90,"name":"Mary Carter Greenway Trailhead","alt_name":"","type":"Trailhead","bathrooms":"","fee":"","water":"","manager":"South Suburban Parks and Recreation"}},{"type":"Feature","id":"trailheads_cotrex02192019.13","geometry":{"type":"Point","coordinates":[-105.02585071,39.61348872]},"geometry_name":"the_geom","properties":{"ogc_fid":13,"feature_id":61345,"place_id":87,"name":"Mary Carter Greenway Trailhead","alt_name":"","type":"Trailhead","bathrooms":"","fee":"","water":"","manager":"South Suburban Parks and Recreation"}},{"type":"Feature","id":"trailheads_cotrex02192019.14","geometry":{"type":"Point","coordinates":[-104.92237232,39.58724533]},"geometry_name":"the_geom","properties":{"ogc_fid":14,"feature_id":61338,"place_id":80,"name":"Willow Creek Trailhead","alt_name":"","type":"Trailhead","bathrooms":"","fee":"","water":"","manager":"South Suburban Parks and Recreation"}},{"type":"Feature","id":"trailheads_cotrex02192019.15","geometry":{"type":"Point","coordinates":[-104.99658625,39.62125851]},"geometry_name":"the_geom","properties":{"ogc_fid":15,"feature_id":61334,"place_id":76,"name":"Big Dry Creek Trailhead","alt_name":"","type":"Trailhead","bathrooms":"","fee":"","water":"","manager":"South Suburban Parks and Recreation"}},{"type":"Feature","id":"trailheads_cotrex02192019.16","geometry":{"type":"Point","coordinates":[-105.01723248,39.62378019]},"geometry_name":"the_geom","properties":{"ogc_fid":16,"feature_id":61333,"place_id":75,"name":"Mary Carter Greenway Trailhead","alt_name":"","type":"Trailhead","bathrooms":"","fee":"","water":"","manager":"South Suburban Parks and Recreation"}},{"type":"Feature","id":"trailheads_cotrex02192019.17","geometry":{"type":"Point","coordinates":[-104.9812083,39.61613914]},"geometry_name":"the_geom","properties":{"ogc_fid":17,"feature_id":61332,"place_id":74,"name":"Big Dry Creek Trailhead","alt_name":"","type":"Trailhead","bathrooms":"","fee":"","water":"","manager":"South Suburban Parks and Recreation"}},{"type":"Feature","id":"trailheads_cotrex02192019.18","geometry":{"type":"Point","coordinates":[-105.02191965,39.5972888]},"geometry_name":"the_geom","properties":{"ogc_fid":18,"feature_id":61331,"place_id":73,"name":"Lee Gulch Trailhead","alt_name":"","type":"Trailhead","bathrooms":"","fee":"","water":"","manager":"South Suburban Parks and Recreation"}},{"type":"Feature","id":"trailheads_cotrex02192019.19","geometry":{"type":"Point","coordinates":[-106.10470048,39.90642007]},"geometry_name":"the_geom","properties":{"ogc_fid":19,"feature_id":63118,"place_id":960,"name":"Williams Peak Trailhead","alt_name":"","type":"Trailhead","bathrooms":"no","fee":"no","water":"no","manager":"USFS Sulphur Ranger District"}},{"type":"Feature","id":"trailheads_cotrex02192019.20","geometry":{"type":"Point","coordinates":[-106.02083004,39.87392648]},"geometry_name":"the_geom","properties":{"ogc_fid":20,"feature_id":63150,"place_id":992,"name":"Keyser Ridge Trailhead","alt_name":"","type":"Trailhead","bathrooms":"no","fee":"no","water":"no","manager":"USFS Sulphur Ranger District"}},{"type":"Feature","id":"trailheads_cotrex02192019.21","geometry":{"type":"Point","coordinates":[-106.0166307,39.85387018]},"geometry_name":"the_geom","properties":{"ogc_fid":21,"feature_id":63149,"place_id":991,"name":"Kinney Creek Trailhead","alt_name":"","type":"Trailhead","bathrooms":"no","fee":"no","water":"no","manager":"USFS Sulphur Ranger District"}},{"type":"Feature","id":"trailheads_cotrex02192019.22","geometry":{"type":"Point","coordinates":[-105.95642994,39.89354325]},"geometry_name":"the_geom","properties":{"ogc_fid":22,"feature_id":63148,"place_id":990,"name":"Lake Evelyn Trailhead","alt_name":"","type":"Trailhead","bathrooms":"no","fee":"no","water":"no","manager":"USFS Sulphur Ranger District"}},{"type":"Feature","id":"trailheads_cotrex02192019.23","geometry":{"type":"Point","coordinates":[-105.92529676,39.88852694]},"geometry_name":"the_geom","properties":{"ogc_fid":23,"feature_id":63012,"place_id":904,"name":"Byers Peak Trailhead","alt_name":"","type":"Trailhead","bathrooms":"no","fee":"no","water":"no","manager":"USFS Sulphur Ranger District"}},{"type":"Feature","id":"trailheads_cotrex02192019.24","geometry":{"type":"Point","coordinates":[-104.88834391,38.61984556]},"geometry_name":"the_geom","properties":{"ogc_fid":24,"feature_id":3506486,"place_id":21554,"name":"Aiken Canyon Trailhead","alt_name":"","type":"Trailhead","bathrooms":"no","fee":"no","water":"no","manager":""}},{"type":"Feature","id":"trailheads_cotrex02192019.25","geometry":{"type":"Point","coordinates":[-107.33419416,39.54560623]},"geometry_name":"the_geom","properties":{"ogc_fid":25,"feature_id":3506544,"place_id":21555,"name":"Red Mountain Trailhead","alt_name":"Jeanne Golay Trailhead","type":"Trailhead","bathrooms":"no","fee":"no","water":"no","manager":"City of Glenwood Springs"}},{"type":"Feature","id":"trailheads_cotrex02192019.26","geometry":{"type":"Point","coordinates":[-107.46661283,37.76199059]},"geometry_name":"the_geom","properties":{"ogc_fid":26,"feature_id":62914,"place_id":856,"name":"Pole Creek Trailhead","alt_name":"","type":"Trailhead","bathrooms":"no","fee":"no","water":"no","manager":"USFS Divide Ranger District"}},{"type":"Feature","id":"trailheads_cotrex02192019.27","geometry":{"type":"Point","coordinates":[-104.78790812,39.55529782]},"geometry_name":"the_geom","properties":{"ogc_fid":27,"feature_id":61520,"place_id":162,"name":"Cottonwood Trailhead","alt_name":"","type":"Trailhead","bathrooms":"yes","fee":"no","water":"","manager":"Town of Parker Parks and Recreation"}},{"type":"Feature","id":"trailheads_cotrex02192019.28","geometry":{"type":"Point","coordinates":[-104.77517322,39.5158619]},"geometry_name":"the_geom","properties":{"ogc_fid":28,"feature_id":61519,"place_id":161,"name":"Bar CCC Park Trailhead","alt_name":"","type":"Trailhead","bathrooms":"yes","fee":"no","water":"","manager":"Town of Parker Parks and Recreation"}},{"type":"Feature","id":"trailheads_cotrex02192019.29","geometry":{"type":"Point","coordinates":[-104.77105992,39.47891053]},"geometry_name":"the_geom","properties":{"ogc_fid":29,"feature_id":61518,"place_id":160,"name":"Stroh Ranch Soccer Park Trailhead","alt_name":"","type":"Trailhead","bathrooms":"yes","fee":"no","water":"","manager":"Town of Parker Parks and Recreation"}},{"type":"Feature","id":"trailheads_cotrex02192019.30","geometry":{"type":"Point","coordinates":[-104.7631832,39.50097969]},"geometry_name":"the_geom","properties":{"ogc_fid":30,"feature_id":61517,"place_id":159,"name":"McCabe Meadows Trailhead","alt_name":"","type":"Trailhead","bathrooms":"yes","fee":"no","water":"","manager":"Town of Parker Parks and Recreation"}},{"type":"Feature","id":"trailheads_cotrex02192019.31","geometry":{"type":"Point","coordinates":[-104.78403123,39.56305771]},"geometry_name":"the_geom","properties":{"ogc_fid":31,"feature_id":61516,"place_id":158,"name":"Norton Farms Trailhead","alt_name":"","type":"Trailhead","bathrooms":"yes","fee":"no","water":"","manager":"Town of Parker Parks and Recreation"}},{"type":"Feature","id":"trailheads_cotrex02192019.32","geometry":{"type":"Point","coordinates":[-104.77412797,39.5404586]},"geometry_name":"the_geom","properties":{"ogc_fid":32,"feature_id":61515,"place_id":157,"name":"Baldwin Gulch? Trailhead","alt_name":"","type":"Trailhead","bathrooms":"no","fee":"no","water":"","manager":"Town of Parker Parks and Recreation"}},{"type":"Feature","id":"trailheads_cotrex02192019.33","geometry":{"type":"Point","coordinates":[-104.77761189,39.5245167]},"geometry_name":"the_geom","properties":{"ogc_fid":33,"feature_id":61514,"place_id":156,"name":"Railbender Skate Park Trailhead","alt_name":"","type":"Trailhead","bathrooms":"yes","fee":"no","water":"","manager":"Town of Parker Parks and Recreation"}},{"type":"Feature","id":"trailheads_cotrex02192019.34","geometry":{"type":"Point","coordinates":[-104.75298487,39.51685308]},"geometry_name":"the_geom","properties":{"ogc_fid":34,"feature_id":61513,"place_id":155,"name":"Town Hall Trailhead","alt_name":"","type":"Trailhead","bathrooms":"yes","fee":"no","water":"","manager":"Town of Parker Parks and Recreation"}},{"type":"Feature","id":"trailheads_cotrex02192019.35","geometry":{"type":"Point","coordinates":[-104.73394357,39.49171667]},"geometry_name":"the_geom","properties":{"ogc_fid":35,"feature_id":61512,"place_id":154,"name":"Tallman Meadow Park Trailhead","alt_name":"","type":"Trailhead","bathrooms":"yes","fee":"no","water":"","manager":"Town of Parker Parks and Recreation"}},{"type":"Feature","id":"trailheads_cotrex02192019.36","geometry":{"type":"Point","coordinates":[-105.04661081,40.02901817]},"geometry_name":"the_geom","properties":{"ogc_fid":36,"feature_id":61510,"place_id":152,"name":"Coal Creek Trailhead at Lawsc","alt_name":"","type":"Trailhead","bathrooms":"","fee":"no","water":"","manager":"Town of Erie"}},{"type":"Feature","id":"trailheads_cotrex02192019.37","geometry":{"type":"Point","coordinates":[-107.3402858,39.55151491]},"geometry_name":"the_geom","properties":{"ogc_fid":37,"feature_id":3506567,"place_id":21556,"name":"Glenwood Springs Community Center Trailhead","alt_name":"","type":"Trailhead","bathrooms":"yes","fee":"no","water":"yes","manager":"City of Glenwood Springs"}},{"type":"Feature","id":"trailheads_cotrex02192019.38","geometry":{"type":"Point","coordinates":[-107.27046357,39.47294935]},"geometry_name":"the_geom","properties":{"ogc_fid":38,"feature_id":205388,"place_id":2693,"name":"CMC Park & Ride Trailhead","alt_name":"","type":"Trailhead","bathrooms":"no","fee":"no","water":"no","manager":"Roaring Fork Transportation Authority"}},{"type":"Feature","id":"trailheads_cotrex02192019.39","geometry":{"type":"Point","coordinates":[-107.88514744,38.47497341]},"geometry_name":"the_geom","properties":{"ogc_fid":39,"feature_id":61655,"place_id":247,"name":"West Main Trailhead","alt_name":"","type":"Trailhead","bathrooms":"yes","fee":"no","water":"yes","manager":"Trail Manager Unknown"}},{"type":"Feature","id":"trailheads_cotrex02192019.40","geometry":{"type":"Point","coordinates":[-107.2120951,39.40245143]},"geometry_name":"the_geom","properties":{"ogc_fid":40,"feature_id":205389,"place_id":2701,"name":"Carbondale Trailhead","alt_name":"","type":"Trailhead","bathrooms":"no","fee":"no","water":"no","manager":"Roaring Fork Transportation Authority"}},{"type":"Feature","id":"trailheads_cotrex02192019.41","geometry":{"type":"Point","coordinates":[-105.85888281,39.92604599]},"geometry_name":"the_geom","properties":{"ogc_fid":41,"feature_id":62222,"place_id":514,"name":"St. Louis Creek Trailhead","alt_name":"","type":"Trailhead","bathrooms":"no","fee":"no","water":"no","manager":"USFS Sulphur Ranger District"}},{"type":"Feature","id":"trailheads_cotrex02192019.42","geometry":{"type":"Point","coordinates":[-108.02639095,37.59128433]},"geometry_name":"the_geom","properties":{"ogc_fid":42,"feature_id":61641,"place_id":233,"name":"Salt Creek Trailhead Upper","alt_name":"","type":"Trailhead","bathrooms":"","fee":"","water":"","manager":"Town of Dolores"}},{"type":"Feature","id":"trailheads_cotrex02192019.43","geometry":{"type":"Point","coordinates":[-105.84912963,39.93367551]},"geometry_name":"the_geom","properties":{"ogc_fid":43,"feature_id":62337,"place_id":579,"name":"Lower Creekside Trailhead","alt_name":"","type":"Trailhead","bathrooms":"no","fee":"no","water":"no","manager":"USFS Sulphur Ranger District"}},{"type":"Feature","id":"trailheads_cotrex02192019.44","geometry":{"type":"Point","coordinates":[-105.64902976,37.90708117]},"geometry_name":"the_geom","properties":{"ogc_fid":44,"feature_id":2364456,"place_id":20853,"name":"Liberty Gate Trailhead","alt_name":"","type":"Trailhead","bathrooms":"yes","fee":"no","water":"no","manager":"Great Sand Dunes National Park and Preserve"}},{"type":"Feature","id":"trailheads_cotrex02192019.45","geometry":{"type":"Point","coordinates":[-108.9676279,40.29298795]},"geometry_name":"the_geom","properties":{"ogc_fid":45,"feature_id":199794,"place_id":18813,"name":"Plug Hat Nature Trail","alt_name":"","type":"Interpretive Trailhead","bathrooms":"yes","fee":"yes","water":"no","manager":"Dinosaur National Monument"}},{"type":"Feature","id":"trailheads_cotrex02192019.46","geometry":{"type":"Point","coordinates":[-107.15528632,39.39945162]},"geometry_name":"the_geom","properties":{"ogc_fid":46,"feature_id":205390,"place_id":2694,"name":"Catherine Bridge Trailhead","alt_name":"","type":"Trailhead","bathrooms":"no","fee":"no","water":"no","manager":"Roaring Fork Transportation Authority"}},{"type":"Feature","id":"trailheads_cotrex02192019.47","geometry":{"type":"Point","coordinates":[-107.08576602,39.37314502]},"geometry_name":"the_geom","properties":{"ogc_fid":47,"feature_id":205396,"place_id":2696,"name":"Hooks Lane Trailhead","alt_name":"","type":"Trailhead","bathrooms":"yes","fee":"no","water":"no","manager":"Roaring Fork Transportation Authority"}},{"type":"Feature","id":"trailheads_cotrex02192019.48","geometry":{"type":"Point","coordinates":[-105.83311086,39.91891227]},"geometry_name":"the_geom","properties":{"ogc_fid":48,"feature_id":202686,"place_id":19352,"name":"Elk Meadows Trailhead","alt_name":"","type":"Trailhead","bathrooms":"no","fee":"no","water":"no","manager":"USFS Sulphur Ranger District"}},{"type":"Feature","id":"trailheads_cotrex02192019.49","geometry":{"type":"Point","coordinates":[-105.65808368,39.85614546]},"geometry_name":"the_geom","properties":{"ogc_fid":49,"feature_id":198801,"place_id":1991,"name":"James Peak Lake Trailhead","alt_name":"","type":"Trailhead","bathrooms":"no","fee":"no","water":"no","manager":"USFS Boulder Ranger District"}},{"type":"Feature","id":"trailheads_cotrex02192019.50","geometry":{"type":"Point","coordinates":[-108.06321915,37.80507088]},"geometry_name":"the_geom","properties":{"ogc_fid":50,"feature_id":61616,"place_id":208,"name":"Navajo Lake Trailhead","alt_name":"","type":"Trailhead","bathrooms":"","fee":"","water":"","manager":"Trail Manager Unknown"}},{"type":"Feature","id":"trailheads_cotrex02192019.51","geometry":{"type":"Point","coordinates":[-108.22428411,37.39636179]},"geometry_name":"the_geom","properties":{"ogc_fid":51,"feature_id":61756,"place_id":298,"name":"Echo Basin Trailhead","alt_name":"","type":"Trailhead","bathrooms":"","fee":"","water":"","manager":"Trail Manager Unknown"}},{"type":"Feature","id":"trailheads_cotrex02192019.52","geometry":{"type":"Point","coordinates":[-108.88164384,37.50747712]},"geometry_name":"the_geom","properties":{"ogc_fid":52,"feature_id":61753,"place_id":295,"name":"Mockingbird Mesa Trailhead","alt_name":"","type":"Trailhead","bathrooms":"","fee":"","water":"","manager":"Trail Manager Unknown"}},{"type":"Feature","id":"trailheads_cotrex02192019.53","geometry":{"type":"Point","coordinates":[-107.98774062,37.7685468]},"geometry_name":"the_geom","properties":{"ogc_fid":53,"feature_id":61752,"place_id":294,"name":"Barlow Trailhead","alt_name":"","type":"Trailhead","bathrooms":"","fee":"","water":"","manager":"Trail Manager Unknown"}},{"type":"Feature","id":"trailheads_cotrex02192019.54","geometry":{"type":"Point","coordinates":[-107.0377414,39.35723402]},"geometry_name":"the_geom","properties":{"ogc_fid":54,"feature_id":61709,"place_id":251,"name":"Basalt High School Trailhead","alt_name":"","type":"Trailhead","bathrooms":"yes","fee":"no","water":"no","manager":"Pitkin County Open Space & Trails"}},{"type":"Feature","id":"trailheads_cotrex02192019.55","geometry":{"type":"Point","coordinates":[-108.93242067,37.34736789]},"geometry_name":"the_geom","properties":{"ogc_fid":55,"feature_id":61745,"place_id":287,"name":"Cannonball Mesa OHV Trailhead","alt_name":"","type":"Trailhead","bathrooms":"","fee":"","water":"","manager":"City of Cortez"}},{"type":"Feature","id":"trailheads_cotrex02192019.56","geometry":{"type":"Point","coordinates":[-105.59491524,39.95156169]},"geometry_name":"the_geom","properties":{"ogc_fid":56,"feature_id":63125,"place_id":967,"name":"Hessie Trailhead","alt_name":"","type":"Trailhead","bathrooms":"no","fee":"no","water":"no","manager":"USFS Boulder Ranger District"}},{"type":"Feature","id":"trailheads_cotrex02192019.57","geometry":{"type":"Point","coordinates":[-105.56878476,40.00970684]},"geometry_name":"the_geom","properties":{"ogc_fid":57,"feature_id":63109,"place_id":951,"name":"Rainbow Lakes Trailhead","alt_name":"","type":"Trailhead","bathrooms":"yes","fee":"no","water":"no","manager":"USFS Boulder Ranger District"}},{"type":"Feature","id":"trailheads_cotrex02192019.58","geometry":{"type":"Point","coordinates":[-107.01100267,39.34681759]},"geometry_name":"the_geom","properties":{"ogc_fid":58,"feature_id":61858,"place_id":350,"name":"Wingo Trailhead","alt_name":"","type":"Trailhead","bathrooms":"no","fee":"no","water":"no","manager":"Pitkin County Open Space & Trails"}},{"type":"Feature","id":"trailheads_cotrex02192019.59","geometry":{"type":"Point","coordinates":[-106.81718187,39.19162804]},"geometry_name":"the_geom","properties":{"ogc_fid":59,"feature_id":61855,"place_id":347,"name":"Rio Grande Trailhead","alt_name":"","type":"Trailhead","bathrooms":"yes","fee":"","water":"","manager":"City of Aspen"}},{"type":"Feature","id":"trailheads_cotrex02192019.60","geometry":{"type":"Point","coordinates":[-106.87245083,39.22232391]},"geometry_name":"the_geom","properties":{"ogc_fid":60,"feature_id":61850,"place_id":342,"name":"Airline Trailhead","alt_name":"","type":"Trailhead","bathrooms":"no","fee":"","water":"","manager":"Pitkin County Open Space & Trails"}},{"type":"Feature","id":"trailheads_cotrex02192019.61","geometry":{"type":"Point","coordinates":[-106.18917428,38.50867638]},"geometry_name":"the_geom","properties":{"ogc_fid":61,"feature_id":877168,"place_id":3020,"name":"Greens Creek Trailhead","alt_name":"","type":"Trailhead","bathrooms":"no","fee":"no","water":"no","manager":"USFS Salida Ranger District"}},{"type":"Feature","id":"trailheads_cotrex02192019.62","geometry":{"type":"Point","coordinates":[-106.98604107,39.33241632]},"geometry_name":"the_geom","properties":{"ogc_fid":62,"feature_id":61713,"place_id":255,"name":"Arciero Trailhead","alt_name":"","type":"Trailhead","bathrooms":"no","fee":"no","water":"no","manager":"Pitkin County Open Space & Trails"}},{"type":"Feature","id":"trailheads_cotrex02192019.63","geometry":{"type":"Point","coordinates":[-106.7559927,39.02030732]},"geometry_name":"the_geom","properties":{"ogc_fid":63,"feature_id":61836,"place_id":328,"name":"Taylor Pass/Express Creek Trailhead","alt_name":"","type":"Trailhead","bathrooms":"no","fee":"","water":"","manager":""}},{"type":"Feature","id":"trailheads_cotrex02192019.64","geometry":{"type":"Point","coordinates":[-107.23158207,39.25386252]},"geometry_name":"the_geom","properties":{"ogc_fid":64,"feature_id":61830,"place_id":322,"name":"Avalanche Creek Trailhead","alt_name":"","type":"Trailhead","bathrooms":"no","fee":"","water":"","manager":""}},{"type":"Feature","id":"trailheads_cotrex02192019.65","geometry":{"type":"Point","coordinates":[-107.30284954,39.19860643]},"geometry_name":"the_geom","properties":{"ogc_fid":65,"feature_id":61828,"place_id":320,"name":"Coal Basin Trailhead","alt_name":"","type":"Trailhead","bathrooms":"no","fee":"","water":"","manager":""}},{"type":"Feature","id":"trailheads_cotrex02192019.66","geometry":{"type":"Point","coordinates":[-105.58174364,40.08317367]},"geometry_name":"the_geom","properties":{"ogc_fid":66,"feature_id":207001,"place_id":19333,"name":"Mitchell Lake Trailhead","alt_name":"","type":"Trailhead","bathrooms":"yes","fee":"yes","water":"no","manager":"USFS Boulder Ranger District"}},{"type":"Feature","id":"trailheads_cotrex02192019.67","geometry":{"type":"Point","coordinates":[-105.58116427,40.08364193]},"geometry_name":"the_geom","properties":{"ogc_fid":67,"feature_id":198806,"place_id":1989,"name":"Beaver Creek Trailhead","alt_name":"","type":"Trailhead","bathrooms":"yes","fee":"no","water":"no","manager":"USFS Boulder Ranger District"}},{"type":"Feature","id":"trailheads_cotrex02192019.68","geometry":{"type":"Point","coordinates":[-105.24673296,38.4482138]},"geometry_name":"the_geom","properties":{"ogc_fid":68,"feature_id":61935,"place_id":377,"name":"Floral Avenue Trailhead","alt_name":"","type":"Trailhead","bathrooms":"no","fee":"no","water":"no","manager":"City of Canon City"}},{"type":"Feature","id":"trailheads_cotrex02192019.69","geometry":{"type":"Point","coordinates":[-105.25154757,38.46182998]},"geometry_name":"the_geom","properties":{"ogc_fid":69,"feature_id":61934,"place_id":376,"name":"Dakota Ridge Trailhead","alt_name":"","type":"Trailhead","bathrooms":"no","fee":"no","water":"no","manager":"City of Canon City"}},{"type":"Feature","id":"trailheads_cotrex02192019.70","geometry":{"type":"Point","coordinates":[-105.99003087,38.53804583]},"geometry_name":"the_geom","properties":{"ogc_fid":70,"feature_id":2480744,"place_id":20879,"name":"Salida Trailhead","alt_name":"","type":"Trailhead","bathrooms":"no","fee":"no","water":"no","manager":"City of Salida"}},{"type":"Feature","id":"trailheads_cotrex02192019.71","geometry":{"type":"Point","coordinates":[-105.24955566,38.46920619]},"geometry_name":"the_geom","properties":{"ogc_fid":71,"feature_id":61933,"place_id":375,"name":"Washington Street Trailhead","alt_name":"","type":"Trailhead","bathrooms":"no","fee":"no","water":"no","manager":"City of Canon City"}},{"type":"Feature","id":"trailheads_cotrex02192019.72","geometry":{"type":"Point","coordinates":[-105.26491255,38.43366446]},"geometry_name":"the_geom","properties":{"ogc_fid":72,"feature_id":61932,"place_id":374,"name":"Tunnel Drive Trailhead","alt_name":"","type":"Trailhead","bathrooms":"yes","fee":"no","water":"no","manager":"City of Canon City"}},{"type":"Feature","id":"trailheads_cotrex02192019.73","geometry":{"type":"Point","coordinates":[-106.88835729,39.27769469]},"geometry_name":"the_geom","properties":{"ogc_fid":73,"feature_id":61714,"place_id":256,"name":"Woody Creek Trailhead","alt_name":"","type":"Trailhead","bathrooms":"no","fee":"no","water":"no","manager":"Pitkin County Open Space & Trails"}},{"type":"Feature","id":"trailheads_cotrex02192019.74","geometry":{"type":"Point","coordinates":[-105.23975435,38.4379724]},"geometry_name":"the_geom","properties":{"ogc_fid":74,"feature_id":61930,"place_id":372,"name":"River Front Recreation Area Trailhead","alt_name":"","type":"Trailhead","bathrooms":"yes","fee":"no","water":"yes","manager":"City of Canon City"}},{"type":"Feature","id":"trailheads_cotrex02192019.75","geometry":{"type":"Point","coordinates":[-105.30907907,38.46527916]},"geometry_name":"the_geom","properties":{"ogc_fid":75,"feature_id":61929,"place_id":371,"name":"Canyon Rim Trailhead","alt_name":"","type":"Trailhead","bathrooms":"yes","fee":"no","water":"no","manager":"City of Canon City"}},{"type":"Feature","id":"trailheads_cotrex02192019.76","geometry":{"type":"Point","coordinates":[-105.31333267,38.40983385]},"geometry_name":"the_geom","properties":{"ogc_fid":76,"feature_id":61928,"place_id":370,"name":"The Temple Trailhead","alt_name":"","type":"Trailhead","bathrooms":"no","fee":"no","water":"no","manager":"City of Canon City"}},{"type":"Feature","id":"trailheads_cotrex02192019.77","geometry":{"type":"Point","coordinates":[-105.22513574,38.43868633]},"geometry_name":"the_geom","properties":{"ogc_fid":77,"feature_id":61923,"place_id":365,"name":"Sell Avenue Trailhead","alt_name":"","type":"Trailhead","bathrooms":"yes","fee":"no","water":"no","manager":"Canon City Area Recreation and Park District"}},{"type":"Feature","id":"trailheads_cotrex02192019.78","geometry":{"type":"Point","coordinates":[-105.2054128,38.4376411]},"geometry_name":"the_geom","properties":{"ogc_fid":78,"feature_id":61922,"place_id":364,"name":"Raynolds/Ash Trailhead","alt_name":"","type":"Trailhead","bathrooms":"no","fee":"no","water":"no","manager":"Canon City Area Recreation and Park District"}},{"type":"Feature","id":"trailheads_cotrex02192019.79","geometry":{"type":"Point","coordinates":[-105.17853201,38.419165]},"geometry_name":"the_geom","properties":{"ogc_fid":79,"feature_id":61921,"place_id":363,"name":"Mackenzie Trailhead","alt_name":"","type":"Trailhead","bathrooms":"no","fee":"no","water":"no","manager":"Canon City Area Recreation and Park District"}},{"type":"Feature","id":"trailheads_cotrex02192019.80","geometry":{"type":"Point","coordinates":[-105.26036734,38.41867831]},"geometry_name":"the_geom","properties":{"ogc_fid":80,"feature_id":61919,"place_id":361,"name":"Ecology Park Trailhead","alt_name":"","type":"Trailhead","bathrooms":"no","fee":"no","water":"no","manager":"Fremont County"}},{"type":"Feature","id":"trailheads_cotrex02192019.81","geometry":{"type":"Point","coordinates":[-105.53513793,40.08073825]},"geometry_name":"the_geom","properties":{"ogc_fid":81,"feature_id":206668,"place_id":19354,"name":"Red Rock Trailhead","alt_name":"","type":"Trailhead","bathrooms":"no","fee":"yes","water":"no","manager":"USFS Boulder Ranger District"}},{"type":"Feature","id":"trailheads_cotrex02192019.82","geometry":{"type":"Point","coordinates":[-105.48808643,40.10551378]},"geometry_name":"the_geom","properties":{"ogc_fid":82,"feature_id":63255,"place_id":1047,"name":"South Saint Vrain Trailhead","alt_name":"","type":"Trailhead","bathrooms":"no","fee":"no","water":"no","manager":"USFS Boulder Ranger District"}},{"type":"Feature","id":"trailheads_cotrex02192019.83","geometry":{"type":"Point","coordinates":[-105.57644757,40.13013202]},"geometry_name":"the_geom","properties":{"ogc_fid":83,"feature_id":63141,"place_id":983,"name":"Coney Flats Trailhead","alt_name":"","type":"Trailhead","bathrooms":"no","fee":"no","water":"no","manager":"USFS Boulder Ranger District"}},{"type":"Feature","id":"trailheads_cotrex02192019.84","geometry":{"type":"Point","coordinates":[-105.52393631,40.12117375]},"geometry_name":"the_geom","properties":{"ogc_fid":84,"feature_id":63157,"place_id":999,"name":"Beaver Reservoir Trailhead","alt_name":"","type":"Trailhead","bathrooms":"no","fee":"no","water":"no","manager":"USFS Boulder Ranger District"}},{"type":"Feature","id":"trailheads_cotrex02192019.85","geometry":{"type":"Point","coordinates":[-105.53334114,40.1742289]},"geometry_name":"the_geom","properties":{"ogc_fid":85,"feature_id":63257,"place_id":1049,"name":"Saint Vrain Mountain Trailhead","alt_name":"","type":"Trailhead","bathrooms":"no","fee":"no","water":"no","manager":"USFS Boulder Ranger District"}},{"type":"Feature","id":"trailheads_cotrex02192019.86","geometry":{"type":"Point","coordinates":[-105.4766153,40.20482411]},"geometry_name":"the_geom","properties":{"ogc_fid":86,"feature_id":63156,"place_id":998,"name":"Bright Trailhead","alt_name":"","type":"Trailhead","bathrooms":"no","fee":"no","water":"no","manager":"USFS Boulder Ranger District"}},{"type":"Feature","id":"trailheads_cotrex02192019.87","geometry":{"type":"Point","coordinates":[-105.44772733,40.2348529]},"geometry_name":"the_geom","properties":{"ogc_fid":87,"feature_id":200077,"place_id":2170,"name":"Bright Extension Trailhead","alt_name":"","type":"Trailhead","bathrooms":"no","fee":"no","water":"no","manager":"USFS Boulder Ranger District"}},{"type":"Feature","id":"trailheads_cotrex02192019.88","geometry":{"type":"Point","coordinates":[-105.41064811,40.25003583]},"geometry_name":"the_geom","properties":{"ogc_fid":88,"feature_id":63140,"place_id":982,"name":"Coulson Gulch Trailhead","alt_name":"","type":"Trailhead","bathrooms":"no","fee":"no","water":"no","manager":"USFS Boulder Ranger District"}},{"type":"Feature","id":"trailheads_cotrex02192019.89","geometry":{"type":"Point","coordinates":[-103.51282007,37.77000249]},"geometry_name":"the_geom","properties":{"ogc_fid":89,"feature_id":2358487,"place_id":19674,"name":"Vogel Canyon Trailhead","alt_name":"","type":"Trailhead","bathrooms":"yes","fee":"no","water":"no","manager":"USFS Comanche Ranger District"}},{"type":"Feature","id":"trailheads_cotrex02192019.90","geometry":{"type":"Point","coordinates":[-105.41365746,40.18759613]},"geometry_name":"the_geom","properties":{"ogc_fid":90,"feature_id":63139,"place_id":981,"name":"Dry Saint Vrain Trailhead","alt_name":"","type":"Trailhead","bathrooms":"no","fee":"no","water":"no","manager":"USFS Boulder Ranger District"}},{"type":"Feature","id":"trailheads_cotrex02192019.91","geometry":{"type":"Point","coordinates":[-105.3223786,40.10644994]},"geometry_name":"the_geom","properties":{"ogc_fid":91,"feature_id":63114,"place_id":956,"name":"Lefthand OHV Trailhead","alt_name":"","type":"Trailhead","bathrooms":"no","fee":"no","water":"no","manager":"USFS Boulder Ranger District"}},{"type":"Feature","id":"trailheads_cotrex02192019.92","geometry":{"type":"Point","coordinates":[-105.16365519,40.9580756]},"geometry_name":"the_geom","properties":{"ogc_fid":92,"feature_id":201682,"place_id":1942,"name":"Red Mountain Open Space Trailhead","alt_name":"","type":"Trailhead","bathrooms":"yes","fee":"no","water":"no","manager":"Larimer County Parks"}},{"type":"Feature","id":"trailheads_cotrex02192019.93","geometry":{"type":"Point","coordinates":[-106.00689053,40.4311448]},"geometry_name":"the_geom","properties":{"ogc_fid":93,"feature_id":1128397,"place_id":19325,"name":"Teller City Interpretive Trail","alt_name":"","type":"Interpretive Trailhead","bathrooms":"no","fee":"no","water":"no","manager":"USFS Parks Ranger District"}},{"type":"Feature","id":"trailheads_cotrex02192019.94","geometry":{"type":"Point","coordinates":[-106.83986664,39.21161452]},"geometry_name":"the_geom","properties":{"ogc_fid":94,"feature_id":205281,"place_id":2680,"name":"Henry Stein Trailhead","alt_name":"","type":"Trailhead","bathrooms":"yes","fee":"no","water":"no","manager":"Pitkin County Open Space & Trails"}},{"type":"Feature","id":"trailheads_cotrex02192019.95","geometry":{"type":"Point","coordinates":[-105.3961805,39.96076755]},"geometry_name":"the_geom","properties":{"ogc_fid":95,"feature_id":205967,"place_id":2765,"name":"Forsythe Canyon Trailhead","alt_name":"","type":"Trailhead","bathrooms":"yes","fee":"no","water":"no","manager":"USFS Boulder Ranger District"}},{"type":"Feature","id":"trailheads_cotrex02192019.96","geometry":{"type":"Point","coordinates":[-105.44727667,39.95726679]},"geometry_name":"the_geom","properties":{"ogc_fid":96,"feature_id":63126,"place_id":968,"name":"Front Range Trailhead","alt_name":"","type":"Trailhead","bathrooms":"no","fee":"no","water":"no","manager":"USFS Boulder Ranger District"}},{"type":"Feature","id":"trailheads_cotrex02192019.97","geometry":{"type":"Point","coordinates":[-105.51765061,39.94682146]},"geometry_name":"the_geom","properties":{"ogc_fid":97,"feature_id":1691804,"place_id":19355,"name":"West Magnolia Trailhead","alt_name":"","type":"Trailhead","bathrooms":"no","fee":"no","water":"no","manager":"USFS Boulder Ranger District"}},{"type":"Feature","id":"trailheads_cotrex02192019.98","geometry":{"type":"Point","coordinates":[-106.12960705,39.32762484]},"geometry_name":"the_geom","properties":{"ogc_fid":98,"feature_id":203105,"place_id":2603,"name":"Kite Lake Trailhead","alt_name":"","type":"Trailhead","bathrooms":"yes","fee":"","water":"","manager":"USFS South Park Ranger District"}},{"type":"Feature","id":"trailheads_cotrex02192019.99","geometry":{"type":"Point","coordinates":[-107.43457031,39.57389733]},"geometry_name":"the_geom","properties":{"ogc_fid":99,"feature_id":198258,"place_id":1961,"name":"Storm King Trailhead","alt_name":"","type":"Trailhead","bathrooms":"no","fee":"no","water":"no","manager":"BLM Colorado River Valley Field Office"}},{"type":"Feature","id":"trailheads_cotrex02192019.100","geometry":{"type":"Point","coordinates":[-107.53829341,39.58587113]},"geometry_name":"the_geom","properties":{"ogc_fid":100,"feature_id":3506675,"place_id":21561,"name":"Colorow Trailhead","alt_name":"","type":"Trailhead","bathrooms":"no","fee":"no","water":"no","manager":"BLM Colorado River Valley Field Office"}},{"type":"Feature","id":"trailheads_cotrex02192019.101","geometry":{"type":"Point","coordinates":[-106.63574378,40.38906117]},"geometry_name":"the_geom","properties":{"ogc_fid":101,"feature_id":62457,"place_id":649,"name":"Dumont Trailhead","alt_name":"","type":"Trailhead","bathrooms":"","fee":"","water":"","manager":"Trail Manager Unknown"}},{"type":"Feature","id":"trailheads_cotrex02192019.102","geometry":{"type":"Point","coordinates":[-106.6969014,40.3839006]},"geometry_name":"the_geom","properties":{"ogc_fid":102,"feature_id":62456,"place_id":648,"name":"Fox Curve Trailhead","alt_name":"","type":"Trailhead","bathrooms":"","fee":"","water":"","manager":"Trail Manager Unknown"}},{"type":"Feature","id":"trailheads_cotrex02192019.103","geometry":{"type":"Point","coordinates":[-102.7445749,37.01229733]},"geometry_name":"the_geom","properties":{"ogc_fid":103,"feature_id":2358511,"place_id":19676,"name":"Arch Rock Trailhead","alt_name":"","type":"Trailhead","bathrooms":"yes","fee":"no","water":"no","manager":"USFS Comanche Ranger District"}},{"type":"Feature","id":"trailheads_cotrex02192019.104","geometry":{"type":"Point","coordinates":[-106.68080441,40.38560415]},"geometry_name":"the_geom","properties":{"ogc_fid":104,"feature_id":62451,"place_id":643,"name":"Walton Peak Trailhead","alt_name":"","type":"Trailhead","bathrooms":"","fee":"","water":"","manager":"Trail Manager Unknown"}},{"type":"Feature","id":"trailheads_cotrex02192019.105","geometry":{"type":"Point","coordinates":[-105.21331522,39.81717036]},"geometry_name":"the_geom","properties":{"ogc_fid":105,"feature_id":62445,"place_id":637,"name":"","alt_name":"","type":"Trailhead","bathrooms":"","fee":"","water":"","manager":"City of Arvada Parks and Open Space"}},{"type":"Feature","id":"trailheads_cotrex02192019.106","geometry":{"type":"Point","coordinates":[-105.06179212,39.83800107]},"geometry_name":"the_geom","properties":{"ogc_fid":106,"feature_id":62440,"place_id":632,"name":"","alt_name":"","type":"Trailhead","bathrooms":"","fee":"","water":"","manager":"City of Arvada Parks and Open Space"}},{"type":"Feature","id":"trailheads_cotrex02192019.107","geometry":{"type":"Point","coordinates":[-104.94182841,39.8964779]},"geometry_name":"the_geom","properties":{"ogc_fid":107,"feature_id":62412,"place_id":604,"name":"Grange Hall Creek Trailhead at Carpenter Park","alt_name":"","type":"Trailhead","bathrooms":"yes","fee":"no","water":"yes","manager":"City of Thornton"}},{"type":"Feature","id":"trailheads_cotrex02192019.108","geometry":{"type":"Point","coordinates":[-107.32173407,39.54138489]},"geometry_name":"the_geom","properties":{"ogc_fid":108,"feature_id":3506734,"place_id":21562,"name":"Doc Holliday Grave","alt_name":"","type":"Interpretive Trailhead","bathrooms":"no","fee":"no","water":"no","manager":"City of Glenwood Springs"}},{"type":"Feature","id":"trailheads_cotrex02192019.109","geometry":{"type":"Point","coordinates":[-104.87124562,39.63631826]},"geometry_name":"the_geom","properties":{"ogc_fid":109,"feature_id":1824598,"place_id":19502,"name":"West Shades Trailhead","alt_name":"","type":"Trailhead","bathrooms":"yes","fee":"yes","water":"no","manager":"Cherry Creek State Park"}},{"type":"Feature","id":"trailheads_cotrex02192019.110","geometry":{"type":"Point","coordinates":[-104.85988484,39.63517744]},"geometry_name":"the_geom","properties":{"ogc_fid":110,"feature_id":1824596,"place_id":19500,"name":"Lake Loop Trailhead","alt_name":"","type":"Trailhead","bathrooms":"yes","fee":"yes","water":"no","manager":"Cherry Creek State Park"}},{"type":"Feature","id":"trailheads_cotrex02192019.111","geometry":{"type":"Point","coordinates":[-104.86345957,39.63434704]},"geometry_name":"the_geom","properties":{"ogc_fid":111,"feature_id":1824594,"place_id":19498,"name":"Mountain Loop Trailhead","alt_name":"","type":"Trailhead","bathrooms":"yes","fee":"yes","water":"no","manager":"Cherry Creek State Park"}},{"type":"Feature","id":"trailheads_cotrex02192019.112","geometry":{"type":"Point","coordinates":[-107.25708173,39.52778749]},"geometry_name":"the_geom","properties":{"ogc_fid":112,"feature_id":63542,"place_id":1184,"name":"Lookout Mountain Trailhead","alt_name":"","type":"Trailhead","bathrooms":"no","fee":"no","water":"no","manager":"BLM Colorado River Valley Field Office"}},{"type":"Feature","id":"trailheads_cotrex02192019.113","geometry":{"type":"Point","coordinates":[-105.81330257,38.65796612]},"geometry_name":"the_geom","properties":{"ogc_fid":113,"feature_id":63334,"place_id":1076,"name":"Badger Creek Trailhead","alt_name":"Big Springs Trailhead","type":"Trailhead","bathrooms":"no","fee":"no","water":"no","manager":"BLM Royal Gorge Field Office"}},{"type":"Feature","id":"trailheads_cotrex02192019.114","geometry":{"type":"Point","coordinates":[-105.02979541,38.54094988]},"geometry_name":"the_geom","properties":{"ogc_fid":114,"feature_id":3506755,"place_id":21563,"name":"Beaver Creek Lower Trailhead","alt_name":"","type":"Trailhead","bathrooms":"no","fee":"no","water":"no","manager":"CPW State Wildlife Areas"}},{"type":"Feature","id":"trailheads_cotrex02192019.115","geometry":{"type":"Point","coordinates":[-105.01209928,38.57068625]},"geometry_name":"the_geom","properties":{"ogc_fid":115,"feature_id":63319,"place_id":1061,"name":"Beaver Creek Trailhead","alt_name":"","type":"Trailhead","bathrooms":"no","fee":"no","water":"no","manager":"CPW State Wildlife Areas"}},{"type":"Feature","id":"trailheads_cotrex02192019.116","geometry":{"type":"Point","coordinates":[-105.08667031,38.5714118]},"geometry_name":"the_geom","properties":{"ogc_fid":116,"feature_id":63318,"place_id":1060,"name":"Holbert Trailhead","alt_name":"","type":"Trailhead","bathrooms":"no","fee":"no","water":"no","manager":"BLM Royal Gorge Field Office"}},{"type":"Feature","id":"trailheads_cotrex02192019.117","geometry":{"type":"Point","coordinates":[-107.1889352,39.36138208]},"geometry_name":"the_geom","properties":{"ogc_fid":117,"feature_id":205395,"place_id":2695,"name":"Bull Pen Trailhead","alt_name":"Prince Creek Trailhead","type":"Trailhead","bathrooms":"no","fee":"no","water":"no","manager":"Pitkin County Open Space & Trails"}},{"type":"Feature","id":"trailheads_cotrex02192019.118","geometry":{"type":"Point","coordinates":[-107.37739743,40.58172824]},"geometry_name":"the_geom","properties":{"ogc_fid":118,"feature_id":1824933,"place_id":19515,"name":"Greenwood Trailhead","alt_name":"","type":"Trailhead","bathrooms":"no","fee":"yes","water":"no","manager":"Elkhead Reservoir State Park"}},{"type":"Feature","id":"trailheads_cotrex02192019.119","geometry":{"type":"Point","coordinates":[-107.36504397,40.57630351]},"geometry_name":"the_geom","properties":{"ogc_fid":119,"feature_id":1824932,"place_id":19514,"name":"North Access Trailhead","alt_name":"","type":"Trailhead","bathrooms":"yes","fee":"yes","water":"no","manager":"Elkhead Reservoir State Park"}},{"type":"Feature","id":"trailheads_cotrex02192019.120","geometry":{"type":"Point","coordinates":[-107.15828679,39.33953981]},"geometry_name":"the_geom","properties":{"ogc_fid":120,"feature_id":197663,"place_id":1928,"name":"BLM Crown Road Trailhead","alt_name":"","type":"Trailhead","bathrooms":"no","fee":"no","water":"no","manager":"BLM Colorado River Valley Field Office"}},{"type":"Feature","id":"trailheads_cotrex02192019.121","geometry":{"type":"Point","coordinates":[-107.13482765,39.32066931]},"geometry_name":"the_geom","properties":{"ogc_fid":121,"feature_id":205677,"place_id":2723,"name":"Prince Creek Trailhead","alt_name":"","type":"Trailhead","bathrooms":"no","fee":"no","water":"no","manager":"BLM Colorado River Valley Field Office"}},{"type":"Feature","id":"trailheads_cotrex02192019.122","geometry":{"type":"Point","coordinates":[-107.33228684,38.57038822]},"geometry_name":"the_geom","properties":{"ogc_fid":122,"feature_id":62843,"place_id":835,"name":"Commissary Trailhead","alt_name":"","type":"Trailhead","bathrooms":"","fee":"","water":"","manager":""}},{"type":"Feature","id":"trailheads_cotrex02192019.123","geometry":{"type":"Point","coordinates":[-108.26119516,37.97712962]},"geometry_name":"the_geom","properties":{"ogc_fid":123,"feature_id":62842,"place_id":834,"name":"East Naturita Winter Trailhead","alt_name":"","type":"Trailhead","bathrooms":"","fee":"","water":"","manager":""}},{"type":"Feature","id":"trailheads_cotrex02192019.124","geometry":{"type":"Point","coordinates":[-107.61989258,39.97826825]},"geometry_name":"the_geom","properties":{"ogc_fid":124,"feature_id":2363804,"place_id":20817,"name":"Oyster Lake Trailhead","alt_name":"Bailey Lake Trailhead","type":"Trailhead","bathrooms":"no","fee":"no","water":"no","manager":"USFS Blanco Ranger District"}},{"type":"Feature","id":"trailheads_cotrex02192019.125","geometry":{"type":"Point","coordinates":[-107.15156372,39.33241062]},"geometry_name":"the_geom","properties":{"ogc_fid":125,"feature_id":197664,"place_id":1927,"name":"Skill Saw/Creek Side Trailhead","alt_name":"","type":"Trailhead","bathrooms":"no","fee":"no","water":"no","manager":"BLM Colorado River Valley Field Office"}},{"type":"Feature","id":"trailheads_cotrex02192019.126","geometry":{"type":"Point","coordinates":[-107.21093349,39.40419252]},"geometry_name":"the_geom","properties":{"ogc_fid":126,"feature_id":3506951,"place_id":21564,"name":"","alt_name":"","type":"Trailhead","bathrooms":"no","fee":"no","water":"no","manager":"Town of Carbondale"}},{"type":"Feature","id":"trailheads_cotrex02192019.127","geometry":{"type":"Point","coordinates":[-105.16450113,39.13170432]},"geometry_name":"the_geom","properties":{"ogc_fid":127,"feature_id":62952,"place_id":894,"name":"Gill Trailhead #610 at Cheesman Canyon","alt_name":"","type":"Trailhead","bathrooms":"","fee":"","water":"","manager":""}},{"type":"Feature","id":"trailheads_cotrex02192019.128","geometry":{"type":"Point","coordinates":[-105.22944276,40.07141857]},"geometry_name":"the_geom","properties":{"ogc_fid":128,"feature_id":1691972,"place_id":19358,"name":"Boulder Reservoir Parking","alt_name":"","type":"Trailhead","bathrooms":"yes","fee":"yes","water":"yes","manager":"City of Boulder Parks and Recreation"}},{"type":"Feature","id":"trailheads_cotrex02192019.129","geometry":{"type":"Point","coordinates":[-105.07881488,39.36000569]},"geometry_name":"the_geom","properties":{"ogc_fid":129,"feature_id":62940,"place_id":882,"name":"Mile and A Half Trailhead #627/#690","alt_name":"","type":"Trailhead","bathrooms":"","fee":"","water":"","manager":""}},{"type":"Feature","id":"trailheads_cotrex02192019.130","geometry":{"type":"Point","coordinates":[-105.08783325,39.30384367]},"geometry_name":"the_geom","properties":{"ogc_fid":130,"feature_id":62938,"place_id":880,"name":"Rim Road / Jackson Creek Trailhead #681","alt_name":"","type":"Trailhead","bathrooms":"","fee":"","water":"","manager":""}},{"type":"Feature","id":"trailheads_cotrex02192019.131","geometry":{"type":"Point","coordinates":[-105.98368962,38.56762324]},"geometry_name":"the_geom","properties":{"ogc_fid":131,"feature_id":2609235,"place_id":20880,"name":"North Backbone Trailhead","alt_name":"","type":"Trailhead","bathrooms":"no","fee":"no","water":"no","manager":"BLM Royal Gorge Field Office"}},{"type":"Feature","id":"trailheads_cotrex02192019.132","geometry":{"type":"Point","coordinates":[-105.20479442,39.11409578]},"geometry_name":"the_geom","properties":{"ogc_fid":132,"feature_id":62917,"place_id":859,"name":"Sheep Nose Trailhead","alt_name":"","type":"Trailhead","bathrooms":"","fee":"","water":"","manager":""}},{"type":"Feature","id":"trailheads_cotrex02192019.133","geometry":{"type":"Point","coordinates":[-104.75453524,38.92692918]},"geometry_name":"the_geom","properties":{"ogc_fid":133,"feature_id":3373295,"place_id":21525,"name":"Cottonwood Creek Park Trailhead","alt_name":"","type":"Trailhead","bathrooms":"yes","fee":"no","water":"seasonally","manager":"City of Colorado Springs Parks, Recreation, and Cultural Services"}},{"type":"Feature","id":"trailheads_cotrex02192019.134","geometry":{"type":"Point","coordinates":[-106.14336818,38.31304224]},"geometry_name":"the_geom","properties":{"ogc_fid":134,"feature_id":63055,"place_id":947,"name":"Rawley 12 Trailhead","alt_name":"","type":"Trailhead","bathrooms":"","fee":"","water":"","manager":""}},{"type":"Feature","id":"trailheads_cotrex02192019.135","geometry":{"type":"Point","coordinates":[-106.36923252,37.12398639]},"geometry_name":"the_geom","properties":{"ogc_fid":135,"feature_id":63050,"place_id":942,"name":"Elk Creek Trailhead, Trail 731","alt_name":"","type":"Trailhead","bathrooms":"","fee":"","water":"","manager":""}},{"type":"Feature","id":"trailheads_cotrex02192019.136","geometry":{"type":"Point","coordinates":[-106.47954005,37.27843783]},"geometry_name":"the_geom","properties":{"ogc_fid":136,"feature_id":63047,"place_id":939,"name":"Upper South Fork Trailhead #720","alt_name":"","type":"Trailhead","bathrooms":"","fee":"","water":"","manager":""}},{"type":"Feature","id":"trailheads_cotrex02192019.137","geometry":{"type":"Point","coordinates":[-106.43123713,37.9589635]},"geometry_name":"the_geom","properties":{"ogc_fid":137,"feature_id":63042,"place_id":934,"name":"Storm King Picnic Site Trailhead","alt_name":"","type":"Trailhead","bathrooms":"","fee":"","water":"","manager":""}},{"type":"Feature","id":"trailheads_cotrex02192019.138","geometry":{"type":"Point","coordinates":[-107.22069637,39.41621028]},"geometry_name":"the_geom","properties":{"ogc_fid":138,"feature_id":205096,"place_id":2668,"name":"Red Hill Trailhead","alt_name":"","type":"Trailhead","bathrooms":"no","fee":"no","water":"no","manager":"BLM Colorado River Valley Field Office"}},{"type":"Feature","id":"trailheads_cotrex02192019.139","geometry":{"type":"Point","coordinates":[-106.37743627,37.81153162]},"geometry_name":"the_geom","properties":{"ogc_fid":139,"feature_id":63019,"place_id":911,"name":"Natural Arch Trailhead","alt_name":"","type":"Trailhead","bathrooms":"","fee":"","water":"","manager":""}},{"type":"Feature","id":"trailheads_cotrex02192019.140","geometry":{"type":"Point","coordinates":[-105.71244214,39.80473661]},"geometry_name":"the_geom","properties":{"ogc_fid":140,"feature_id":63017,"place_id":909,"name":"Bill Moore Lake/Empire Loop Trailhead","alt_name":"","type":"Trailhead","bathrooms":"","fee":"","water":"","manager":""}},{"type":"Feature","id":"trailheads_cotrex02192019.141","geometry":{"type":"Point","coordinates":[-105.22629982,40.08733381]},"geometry_name":"the_geom","properties":{"ogc_fid":141,"feature_id":1691953,"place_id":19356,"name":"Boulder Reservoir (55th St) Trailhead","alt_name":"","type":"Trailhead","bathrooms":"yes","fee":"no","water":"no","manager":"City of Boulder Parks and Recreation"}},{"type":"Feature","id":"trailheads_cotrex02192019.142","geometry":{"type":"Point","coordinates":[-104.77629809,38.95093868]},"geometry_name":"the_geom","properties":{"ogc_fid":142,"feature_id":3373305,"place_id":21528,"name":"Rampart Park Trailhead","alt_name":"","type":"Trailhead","bathrooms":"yes","fee":"no","water":"yes","manager":"City of Colorado Springs Parks, Recreation, and Cultural Services"}},{"type":"Feature","id":"trailheads_cotrex02192019.143","geometry":{"type":"Point","coordinates":[-105.89125721,40.18164377]},"geometry_name":"the_geom","properties":{"ogc_fid":143,"feature_id":63123,"place_id":965,"name":"Stillwater Boating Site Trailhead","alt_name":"","type":"Trailhead","bathrooms":"","fee":"","water":"","manager":""}},{"type":"Feature","id":"trailheads_cotrex02192019.144","geometry":{"type":"Point","coordinates":[-105.52488583,40.02784779]},"geometry_name":"the_geom","properties":{"ogc_fid":144,"feature_id":63256,"place_id":1048,"name":"Sourdough Trailhead","alt_name":"","type":"Trailhead","bathrooms":"","fee":"","water":"","manager":""}},{"type":"Feature","id":"trailheads_cotrex02192019.145","geometry":{"type":"Point","coordinates":[-105.64441808,39.82570625]},"geometry_name":"the_geom","properties":{"ogc_fid":145,"feature_id":198606,"place_id":1992,"name":"St. Mary's Glacier Trailhead","alt_name":"","type":"Trailhead","bathrooms":"yes","fee":"yes","water":"no","manager":"USFS Clear Creek Ranger District"}},{"type":"Feature","id":"trailheads_cotrex02192019.146","geometry":{"type":"Point","coordinates":[-104.80598874,39.01119645]},"geometry_name":"the_geom","properties":{"ogc_fid":146,"feature_id":3373316,"place_id":21530,"name":"Mary Kyer Park Trailhead","alt_name":"","type":"Trailhead","bathrooms":"yes","fee":"no","water":"","manager":"City of Colorado Springs Parks, Recreation, and Cultural Services"}},{"type":"Feature","id":"trailheads_cotrex02192019.147","geometry":{"type":"Point","coordinates":[-105.85368465,39.77085741]},"geometry_name":"the_geom","properties":{"ogc_fid":147,"feature_id":63251,"place_id":1043,"name":"Jones Pass Trailhead","alt_name":"","type":"Trailhead","bathrooms":"no","fee":"no","water":"no","manager":"USFS Clear Creek Ranger District"}},{"type":"Feature","id":"trailheads_cotrex02192019.148","geometry":{"type":"Point","coordinates":[-104.88822342,40.44947568]},"geometry_name":"the_geom","properties":{"ogc_fid":148,"feature_id":207284,"place_id":19408,"name":"Kodak Watchable Wildlife Area Trailhead","alt_name":"","type":"Trailhead","bathrooms":"no","fee":"no","water":"no","manager":"Town of Windsor"}},{"type":"Feature","id":"trailheads_cotrex02192019.149","geometry":{"type":"Point","coordinates":[-106.61876909,40.38768756]},"geometry_name":"the_geom","properties":{"ogc_fid":149,"feature_id":63211,"place_id":1003,"name":"Muddy Creek Trailhead","alt_name":"","type":"Trailhead","bathrooms":"","fee":"","water":"","manager":""}},{"type":"Feature","id":"trailheads_cotrex02192019.150","geometry":{"type":"Point","coordinates":[-107.16159534,39.47845208]},"geometry_name":"the_geom","properties":{"ogc_fid":150,"feature_id":198405,"place_id":1976,"name":"Fisher Creek Trailhead","alt_name":"","type":"Trailhead","bathrooms":"no","fee":"no","water":"no","manager":"BLM Colorado River Valley Field Office"}},{"type":"Feature","id":"trailheads_cotrex02192019.151","geometry":{"type":"Point","coordinates":[-104.57701533,37.8450725]},"geometry_name":"the_geom","properties":{"ogc_fid":151,"feature_id":63350,"place_id":1092,"name":"Cuchara Canyon - Wilson Crossing Trailhead","alt_name":"","type":"Trailhead","bathrooms":"","fee":"","water":"no","manager":"BLM Royal Gorge Field Office"}},{"type":"Feature","id":"trailheads_cotrex02192019.152","geometry":{"type":"Point","coordinates":[-108.38323195,40.45039598]},"geometry_name":"the_geom","properties":{"ogc_fid":152,"feature_id":63343,"place_id":1085,"name":"Twelve Mile Mesa Trailhead","alt_name":"","type":"Trailhead","bathrooms":"","fee":"","water":"no","manager":""}},{"type":"Feature","id":"trailheads_cotrex02192019.153","geometry":{"type":"Point","coordinates":[-108.05770225,40.47386787]},"geometry_name":"the_geom","properties":{"ogc_fid":153,"feature_id":63342,"place_id":1084,"name":"West Juniper Mountain Trailhead","alt_name":"","type":"Trailhead","bathrooms":"","fee":"","water":"no","manager":""}},{"type":"Feature","id":"trailheads_cotrex02192019.154","geometry":{"type":"Point","coordinates":[-105.05495064,38.68947823]},"geometry_name":"the_geom","properties":{"ogc_fid":154,"feature_id":63338,"place_id":1080,"name":"Skagway Reservoir Trailhead","alt_name":"","type":"Trailhead","bathrooms":"","fee":"","water":"no","manager":"BLM Royal Gorge Field Office"}},{"type":"Feature","id":"trailheads_cotrex02192019.155","geometry":{"type":"Point","coordinates":[-108.04617801,38.0319045]},"geometry_name":"the_geom","properties":{"ogc_fid":155,"feature_id":63337,"place_id":1079,"name":"Leopard Creek Trailhead","alt_name":"","type":"Trailhead","bathrooms":"","fee":"","water":"no","manager":"BLM Uncompahgre Field Office"}},{"type":"Feature","id":"trailheads_cotrex02192019.156","geometry":{"type":"Point","coordinates":[-107.02716821,39.36046173]},"geometry_name":"the_geom","properties":{"ogc_fid":156,"feature_id":3507143,"place_id":21566,"name":"Fishermans Park","alt_name":"","type":"Trailhead","bathrooms":"yes","fee":"no","water":"no","manager":"Pitkin County Open Space & Trails"}},{"type":"Feature","id":"trailheads_cotrex02192019.157","geometry":{"type":"Point","coordinates":[-104.59081438,37.8058241]},"geometry_name":"the_geom","properties":{"ogc_fid":157,"feature_id":63328,"place_id":1070,"name":"Cuchara Canyon - Sheep Crossing Trailhead","alt_name":"","type":"Trailhead","bathrooms":"","fee":"","water":"no","manager":"BLM Royal Gorge Field Office"}},{"type":"Feature","id":"trailheads_cotrex02192019.158","geometry":{"type":"Point","coordinates":[-108.26244352,40.49612251]},"geometry_name":"the_geom","properties":{"ogc_fid":158,"feature_id":63327,"place_id":1069,"name":"South Cross Mountain East Trailhead","alt_name":"","type":"Trailhead","bathrooms":"","fee":"","water":"no","manager":""}},{"type":"Feature","id":"trailheads_cotrex02192019.159","geometry":{"type":"Point","coordinates":[-105.34660531,38.32085186]},"geometry_name":"the_geom","properties":{"ogc_fid":159,"feature_id":63326,"place_id":1068,"name":"Bear Gulch Trailhead","alt_name":"","type":"Trailhead","bathrooms":"","fee":"","water":"no","manager":"BLM Royal Gorge Field Office"}},{"type":"Feature","id":"trailheads_cotrex02192019.160","geometry":{"type":"Point","coordinates":[-108.11895188,40.5062309]},"geometry_name":"the_geom","properties":{"ogc_fid":160,"feature_id":63315,"place_id":1057,"name":"Thornburg Draw Trailhead","alt_name":"","type":"Trailhead","bathrooms":"","fee":"","water":"no","manager":""}},{"type":"Feature","id":"trailheads_cotrex02192019.161","geometry":{"type":"Point","coordinates":[-105.49005712,38.53224333]},"geometry_name":"the_geom","properties":{"ogc_fid":161,"feature_id":63313,"place_id":1055,"name":"Little Crampton Mountain Trailhead","alt_name":"","type":"Trailhead","bathrooms":"","fee":"","water":"no","manager":"BLM Royal Gorge Field Office"}},{"type":"Feature","id":"trailheads_cotrex02192019.162","geometry":{"type":"Point","coordinates":[-105.68104566,38.60103119]},"geometry_name":"the_geom","properties":{"ogc_fid":162,"feature_id":63312,"place_id":1054,"name":"Waugh Mountain Trailhead","alt_name":"","type":"Trailhead","bathrooms":"","fee":"","water":"no","manager":"BLM Royal Gorge Field Office"}},{"type":"Feature","id":"trailheads_cotrex02192019.163","geometry":{"type":"Point","coordinates":[-107.0134725,39.35483857]},"geometry_name":"the_geom","properties":{"ogc_fid":163,"feature_id":61712,"place_id":254,"name":"Arbaney Kittle Trailhead","alt_name":"","type":"Trailhead","bathrooms":"yes","fee":"no","water":"no","manager":"Pitkin County Open Space & Trails"}},{"type":"Feature","id":"trailheads_cotrex02192019.164","geometry":{"type":"Point","coordinates":[-106.88229458,39.25057356]},"geometry_name":"the_geom","properties":{"ogc_fid":164,"feature_id":3507213,"place_id":21569,"name":"Intercept Lot Trailhead","alt_name":"","type":"Trailhead","bathrooms":"","fee":"","water":"","manager":"Pitkin County Open Space & Trails"}},{"type":"Feature","id":"trailheads_cotrex02192019.165","geometry":{"type":"Point","coordinates":[-105.66006443,39.67785987]},"geometry_name":"the_geom","properties":{"ogc_fid":165,"feature_id":201794,"place_id":2395,"name":"Hells Hole Trailhead","alt_name":"","type":"Trailhead","bathrooms":"yes","fee":"no","water":"no","manager":"USFS Clear Creek Ranger District"}},{"type":"Feature","id":"trailheads_cotrex02192019.166","geometry":{"type":"Point","coordinates":[-107.88516452,38.77609391]},"geometry_name":"the_geom","properties":{"ogc_fid":166,"feature_id":63447,"place_id":1139,"name":"Lawhead Gulch Trailhead","alt_name":"","type":"Trailhead","bathrooms":"","fee":"","water":"no","manager":""}},{"type":"Feature","id":"trailheads_cotrex02192019.167","geometry":{"type":"Point","coordinates":[-109.01803558,39.17378808]},"geometry_name":"the_geom","properties":{"ogc_fid":167,"feature_id":63442,"place_id":1134,"name":"Jouflas Trailhead","alt_name":"","type":"Trailhead","bathrooms":"","fee":"","water":"no","manager":""}},{"type":"Feature","id":"trailheads_cotrex02192019.168","geometry":{"type":"Point","coordinates":[-107.88539667,38.61546117]},"geometry_name":"the_geom","properties":{"ogc_fid":168,"feature_id":63435,"place_id":1127,"name":"Eagle-Wave Trailheads Trailhead","alt_name":"","type":"Trailhead","bathrooms":"","fee":"","water":"no","manager":""}},{"type":"Feature","id":"trailheads_cotrex02192019.169","geometry":{"type":"Point","coordinates":[-108.28822455,39.72750095]},"geometry_name":"the_geom","properties":{"ogc_fid":169,"feature_id":63433,"place_id":1125,"name":"Willow Creek Trailhead","alt_name":"","type":"Trailhead","bathrooms":"","fee":"","water":"no","manager":"BLM White River Field Office"}},{"type":"Feature","id":"trailheads_cotrex02192019.170","geometry":{"type":"Point","coordinates":[-108.35030681,40.46256026]},"geometry_name":"the_geom","properties":{"ogc_fid":170,"feature_id":63432,"place_id":1124,"name":"South Cross Mountain West Trailhead","alt_name":"","type":"Trailhead","bathrooms":"","fee":"","water":"no","manager":""}},{"type":"Feature","id":"trailheads_cotrex02192019.171","geometry":{"type":"Point","coordinates":[-106.97149705,39.20480257]},"geometry_name":"the_geom","properties":{"ogc_fid":171,"feature_id":3507238,"place_id":21570,"name":"Upper Divide Lot","alt_name":"","type":"Trailhead","bathrooms":"no","fee":"no","water":"no","manager":"Town of Snowmass Village"}},{"type":"Feature","id":"trailheads_cotrex02192019.172","geometry":{"type":"Point","coordinates":[-106.9573213,39.20850355]},"geometry_name":"the_geom","properties":{"ogc_fid":172,"feature_id":61949,"place_id":391,"name":"South Rim Trailhead","alt_name":"","type":"Trailhead","bathrooms":"no","fee":"no","water":"no","manager":"Town of Snowmass Village"}},{"type":"Feature","id":"trailheads_cotrex02192019.173","geometry":{"type":"Point","coordinates":[-107.60318089,38.70410143]},"geometry_name":"the_geom","properties":{"ogc_fid":173,"feature_id":63411,"place_id":1103,"name":"Young's Peak Trailhead","alt_name":"","type":"Trailhead","bathrooms":"","fee":"","water":"no","manager":"BLM Uncompahgre Field Office"}},{"type":"Feature","id":"trailheads_cotrex02192019.174","geometry":{"type":"Point","coordinates":[-105.60962365,38.73762872]},"geometry_name":"the_geom","properties":{"ogc_fid":174,"feature_id":63410,"place_id":1102,"name":"31 Mile Mountain Trailhead","alt_name":"","type":"Trailhead","bathrooms":"","fee":"","water":"no","manager":"BLM Royal Gorge Field Office"}},{"type":"Feature","id":"trailheads_cotrex02192019.175","geometry":{"type":"Point","coordinates":[-106.69446214,39.5858517]},"geometry_name":"the_geom","properties":{"ogc_fid":175,"feature_id":2354913,"place_id":19589,"name":"Salt Creek Trailhead","alt_name":"","type":"Trailhead","bathrooms":"no","fee":"no","water":"no","manager":"USFS Eagle-Holy Cross Ranger District"}},{"type":"Feature","id":"trailheads_cotrex02192019.176","geometry":{"type":"Point","coordinates":[-107.54446493,38.72466675]},"geometry_name":"the_geom","properties":{"ogc_fid":176,"feature_id":63554,"place_id":1196,"name":"Needle Rock Trailhead","alt_name":"","type":"Trailhead","bathrooms":"","fee":"","water":"no","manager":"BLM Uncompahgre Field Office"}},{"type":"Feature","id":"trailheads_cotrex02192019.177","geometry":{"type":"Point","coordinates":[-107.16489322,38.17693954]},"geometry_name":"the_geom","properties":{"ogc_fid":177,"feature_id":63551,"place_id":1193,"name":"Powderhorn Lake Trailhead","alt_name":"","type":"Trailhead","bathrooms":"","fee":"","water":"no","manager":"BLM Gunnison Field Office"}},{"type":"Feature","id":"trailheads_cotrex02192019.178","geometry":{"type":"Point","coordinates":[-106.9551439,39.20682824]},"geometry_name":"the_geom","properties":{"ogc_fid":178,"feature_id":61936,"place_id":378,"name":"Lot 8 Trailhead","alt_name":"","type":"Trailhead","bathrooms":"no","fee":"no","water":"no","manager":"Town of Snowmass Village"}},{"type":"Feature","id":"trailheads_cotrex02192019.179","geometry":{"type":"Point","coordinates":[-107.8242745,40.3778401]},"geometry_name":"the_geom","properties":{"ogc_fid":179,"feature_id":63548,"place_id":1190,"name":"Duffy Mountain Trailhead","alt_name":"","type":"Trailhead","bathrooms":"","fee":"","water":"no","manager":""}},{"type":"Feature","id":"trailheads_cotrex02192019.180","geometry":{"type":"Point","coordinates":[-105.63260422,39.66509332]},"geometry_name":"the_geom","properties":{"ogc_fid":180,"feature_id":1692015,"place_id":19362,"name":"South Chicago Creek Trailhead","alt_name":"","type":"Trailhead","bathrooms":"no","fee":"no","water":"no","manager":"USFS Clear Creek Ranger District"}},{"type":"Feature","id":"trailheads_cotrex02192019.181","geometry":{"type":"Point","coordinates":[-106.91252576,39.21106108]},"geometry_name":"the_geom","properties":{"ogc_fid":181,"feature_id":3507278,"place_id":21571,"name":"Tom Blake Trailhead","alt_name":"","type":"Trailhead","bathrooms":"","fee":"","water":"","manager":"Town of Snowmass Village"}},{"type":"Feature","id":"trailheads_cotrex02192019.182","geometry":{"type":"Point","coordinates":[-105.55462128,39.71487263]},"geometry_name":"the_geom","properties":{"ogc_fid":182,"feature_id":63254,"place_id":1046,"name":"Barbour Fork Trailhead","alt_name":"","type":"Trailhead","bathrooms":"no","fee":"no","water":"no","manager":"USFS Clear Creek Ranger District"}},{"type":"Feature","id":"trailheads_cotrex02192019.183","geometry":{"type":"Point","coordinates":[-105.52146825,39.68246855]},"geometry_name":"the_geom","properties":{"ogc_fid":183,"feature_id":63111,"place_id":953,"name":"Chief Mountain Trailhead","alt_name":"","type":"Trailhead","bathrooms":"no","fee":"no","water":"no","manager":"USFS Clear Creek Ranger District"}},{"type":"Feature","id":"trailheads_cotrex02192019.184","geometry":{"type":"Point","coordinates":[-105.44481597,39.67396825]},"geometry_name":"the_geom","properties":{"ogc_fid":184,"feature_id":1692035,"place_id":19364,"name":"Beaver Brook Watershed Trailhead","alt_name":"","type":"Trailhead","bathrooms":"no","fee":"no","water":"no","manager":"USFS Clear Creek Ranger District"}},{"type":"Feature","id":"trailheads_cotrex02192019.185","geometry":{"type":"Point","coordinates":[-106.8525766,39.1871871]},"geometry_name":"the_geom","properties":{"ogc_fid":185,"feature_id":61941,"place_id":383,"name":"Maroon Creek Trailhead","alt_name":"","type":"Trailhead","bathrooms":"no","fee":"no","water":"no","manager":"City of Aspen"}},{"type":"Feature","id":"trailheads_cotrex02192019.186","geometry":{"type":"Point","coordinates":[-105.42296577,39.69002341]},"geometry_name":"the_geom","properties":{"ogc_fid":186,"feature_id":1692034,"place_id":19363,"name":"South Beaver Brook Watershed","alt_name":"","type":"Trailhead","bathrooms":"no","fee":"no","water":"no","manager":"USFS Clear Creek Ranger District"}},{"type":"Feature","id":"trailheads_cotrex02192019.187","geometry":{"type":"Point","coordinates":[-105.72760351,39.60656262]},"geometry_name":"the_geom","properties":{"ogc_fid":187,"feature_id":200070,"place_id":2166,"name":"Silver Dollar Lake Trailhead","alt_name":"","type":"Trailhead","bathrooms":"no","fee":"no","water":"no","manager":"USFS Clear Creek Ranger District"}},{"type":"Feature","id":"trailheads_cotrex02192019.188","geometry":{"type":"Point","coordinates":[-106.83688023,39.18641755]},"geometry_name":"the_geom","properties":{"ogc_fid":188,"feature_id":61940,"place_id":382,"name":"Water Plant Trailhead","alt_name":"","type":"Trailhead","bathrooms":"no","fee":"no","water":"no","manager":"City of Aspen"}},{"type":"Feature","id":"trailheads_cotrex02192019.189","geometry":{"type":"Point","coordinates":[-105.26535208,38.43234076]},"geometry_name":"the_geom","properties":{"ogc_fid":189,"feature_id":203806,"place_id":2618,"name":"Salida Mountain Trailhead","alt_name":"","type":"Trailhead","bathrooms":"","fee":"","water":"","manager":"BLM Royal Gorge Field Office"}},{"type":"Feature","id":"trailheads_cotrex02192019.190","geometry":{"type":"Point","coordinates":[-105.71812907,39.6095711]},"geometry_name":"the_geom","properties":{"ogc_fid":190,"feature_id":61249,"place_id":41,"name":"Naylor Lake Trailhead","alt_name":"","type":"Trailhead","bathrooms":"no","fee":"no","water":"no","manager":"Clear Creek County"}},{"type":"Feature","id":"trailheads_cotrex02192019.191","geometry":{"type":"Point","coordinates":[-105.710263,39.59648101]},"geometry_name":"the_geom","properties":{"ogc_fid":191,"feature_id":207062,"place_id":19365,"name":"Bierstadt Trailhead","alt_name":"","type":"Trailhead","bathrooms":"yes","fee":"no","water":"no","manager":"USFS South Platte Ranger District"}},{"type":"Feature","id":"trailheads_cotrex02192019.192","geometry":{"type":"Point","coordinates":[-105.71291317,39.59719743]},"geometry_name":"the_geom","properties":{"ogc_fid":192,"feature_id":63252,"place_id":1044,"name":"Guanella Pass Trailhead","alt_name":"","type":"Trailhead","bathrooms":"yes","fee":"no","water":"no","manager":"USFS South Platte Ranger District"}},{"type":"Feature","id":"trailheads_cotrex02192019.193","geometry":{"type":"Point","coordinates":[-105.66152102,39.81243439]},"geometry_name":"the_geom","properties":{"ogc_fid":193,"feature_id":201800,"place_id":2386,"name":"Loch Lomond Trailhead","alt_name":"","type":"Trailhead","bathrooms":"no","fee":"no","water":"no","manager":"USFS Clear Creek Ranger District"}},{"type":"Feature","id":"trailheads_cotrex02192019.194","geometry":{"type":"Point","coordinates":[-105.59340689,39.65733619]},"geometry_name":"the_geom","properties":{"ogc_fid":194,"feature_id":63112,"place_id":954,"name":"Captain Mountain Trailhead","alt_name":"","type":"Trailhead","bathrooms":"yes","fee":"no","water":"seasonally","manager":"USFS Clear Creek Ranger District"}},{"type":"Feature","id":"trailheads_cotrex02192019.195","geometry":{"type":"Point","coordinates":[-106.8134925,39.18963426]},"geometry_name":"the_geom","properties":{"ogc_fid":195,"feature_id":61856,"place_id":348,"name":"Rio Grande Trailhead","alt_name":"","type":"Trailhead","bathrooms":"yes","fee":"no","water":"no","manager":"City of Aspen"}},{"type":"Feature","id":"trailheads_cotrex02192019.196","geometry":{"type":"Point","coordinates":[-106.82415212,39.18904063]},"geometry_name":"the_geom","properties":{"ogc_fid":196,"feature_id":61947,"place_id":389,"name":"West Ajax Trailhead","alt_name":"","type":"Trailhead","bathrooms":"no","fee":"no","water":"no","manager":"City of Aspen"}},{"type":"Feature","id":"trailheads_cotrex02192019.197","geometry":{"type":"Point","coordinates":[-107.24972481,39.56130104]},"geometry_name":"the_geom","properties":{"ogc_fid":197,"feature_id":202681,"place_id":2551,"name":"Grizzly Creek Trailhead","alt_name":"","type":"Trailhead","bathrooms":"yes","fee":"no","water":"yes","manager":"USFS Eagle-Holy Cross Ranger District"}},{"type":"Feature","id":"trailheads_cotrex02192019.198","geometry":{"type":"Point","coordinates":[-105.5102258,39.62008792]},"geometry_name":"the_geom","properties":{"ogc_fid":198,"feature_id":200197,"place_id":2173,"name":"Bear Creek Guard Station Trailhead","alt_name":"Captain Mountain Trailhead","type":"Trailhead","bathrooms":"no","fee":"no","water":"no","manager":"USFS Clear Creek Ranger District"}},{"type":"Feature","id":"trailheads_cotrex02192019.199","geometry":{"type":"Point","coordinates":[-107.5266696,40.04121339]},"geometry_name":"the_geom","properties":{"ogc_fid":199,"feature_id":3229328,"place_id":21276,"name":"Fawn Creek Trailhead","alt_name":"","type":"Trailhead","bathrooms":"no","fee":"no","water":"no","manager":"Rio Blanco County"}},{"type":"Feature","id":"trailheads_cotrex02192019.200","geometry":{"type":"Point","coordinates":[-107.56992805,40.00735545]},"geometry_name":"the_geom","properties":{"ogc_fid":200,"feature_id":3229324,"place_id":21274,"name":"","alt_name":"","type":"Trailhead","bathrooms":"no","fee":"no","water":"no","manager":"Rio Blanco County"}},{"type":"Feature","id":"trailheads_cotrex02192019.201","geometry":{"type":"Point","coordinates":[-105.53500495,39.61411301]},"geometry_name":"the_geom","properties":{"ogc_fid":201,"feature_id":205689,"place_id":2712,"name":"Camp Rock Trailhead","alt_name":"","type":"Trailhead","bathrooms":"yes","fee":"no","water":"no","manager":"USFS Clear Creek Ranger District"}},{"type":"Feature","id":"trailheads_cotrex02192019.202","geometry":{"type":"Point","coordinates":[-106.81262985,39.20192547]},"geometry_name":"the_geom","properties":{"ogc_fid":202,"feature_id":61721,"place_id":263,"name":"BLM Red Mountain Trailhead","alt_name":"","type":"Trailhead","bathrooms":"no","fee":"no","water":"no","manager":"Pitkin County Open Space & Trails"}},{"type":"Feature","id":"trailheads_cotrex02192019.203","geometry":{"type":"Point","coordinates":[-106.79772995,39.20616592]},"geometry_name":"the_geom","properties":{"ogc_fid":203,"feature_id":61849,"place_id":341,"name":"Hunter Creek Trailhead","alt_name":"","type":"Trailhead","bathrooms":"no","fee":"no","water":"no","manager":"USFS Aspen-Sopris Ranger District"}},{"type":"Feature","id":"trailheads_cotrex02192019.204","geometry":{"type":"Point","coordinates":[-106.80826196,39.19170684]},"geometry_name":"the_geom","properties":{"ogc_fid":204,"feature_id":61716,"place_id":258,"name":"Smuggler Mountain Trailhead","alt_name":"","type":"Trailhead","bathrooms":"no","fee":"no","water":"no","manager":"Pitkin County Open Space & Trails"}},{"type":"Feature","id":"trailheads_cotrex02192019.205","geometry":{"type":"Point","coordinates":[-106.78900195,39.16432191]},"geometry_name":"the_geom","properties":{"ogc_fid":205,"feature_id":61854,"place_id":14025,"name":"JH Smith Interpretive Loop","alt_name":"","type":"Interpretive Trailhead","bathrooms":"no","fee":"no","water":"no","manager":"Pitkin County Open Space & Trails"}},{"type":"Feature","id":"trailheads_cotrex02192019.206","geometry":{"type":"Point","coordinates":[-105.53676156,39.52177602]},"geometry_name":"the_geom","properties":{"ogc_fid":206,"feature_id":62941,"place_id":883,"name":"Meridian Trailhead #604","alt_name":"","type":"Trailhead","bathrooms":"no","fee":"no","water":"no","manager":"USFS South Platte Ranger District"}},{"type":"Feature","id":"trailheads_cotrex02192019.207","geometry":{"type":"Point","coordinates":[-106.79207085,39.17123062]},"geometry_name":"the_geom","properties":{"ogc_fid":207,"feature_id":61937,"place_id":379,"name":"North Star Beach Gate Trailhead","alt_name":"","type":"Trailhead","bathrooms":"no","fee":"no","water":"no","manager":"Pitkin County Open Space & Trails"}},{"type":"Feature","id":"trailheads_cotrex02192019.208","geometry":{"type":"Point","coordinates":[-105.38339655,39.56833151]},"geometry_name":"the_geom","properties":{"ogc_fid":208,"feature_id":198403,"place_id":1975,"name":"Cub Creek Trailhead","alt_name":"","type":"Trailhead","bathrooms":"no","fee":"no","water":"no","manager":"USFS Clear Creek Ranger District"}},{"type":"Feature","id":"trailheads_cotrex02192019.209","geometry":{"type":"Point","coordinates":[-107.78681585,39.52453717]},"geometry_name":"the_geom","properties":{"ogc_fid":209,"feature_id":3507534,"place_id":21573,"name":"Rifle Information Center Trailhead","alt_name":"","type":"Trailhead","bathrooms":"yes","fee":"no","water":"yes","manager":"City of Rifle"}},{"type":"Feature","id":"trailheads_cotrex02192019.210","geometry":{"type":"Point","coordinates":[-104.9157629,39.47271407]},"geometry_name":"the_geom","properties":{"ogc_fid":210,"feature_id":206584,"place_id":21576,"name":"Daniels Park East Trailhead","alt_name":"","type":"Trailhead","bathrooms":"yes","fee":"no","water":"no","manager":"City and County of Denver"}},{"type":"Feature","id":"trailheads_cotrex02192019.211","geometry":{"type":"Point","coordinates":[-105.59586229,39.65637946]},"geometry_name":"the_geom","properties":{"ogc_fid":211,"feature_id":63110,"place_id":952,"name":"Echo Lake Trailhead","alt_name":"","type":"Trailhead","bathrooms":"yes","fee":"no","water":"seasonally","manager":"USFS Clear Creek Ranger District"}},{"type":"Feature","id":"trailheads_cotrex02192019.212","geometry":{"type":"Point","coordinates":[-104.92155666,39.47290583]},"geometry_name":"the_geom","properties":{"ogc_fid":212,"feature_id":206582,"place_id":21575,"name":"Daniels Park West Trailhead","alt_name":"","type":"Trailhead","bathrooms":"yes","fee":"no","water":"no","manager":"Denver Water"}},{"type":"Feature","id":"trailheads_cotrex02192019.213","geometry":{"type":"Point","coordinates":[-105.64053545,39.59858584]},"geometry_name":"the_geom","properties":{"ogc_fid":213,"feature_id":206992,"place_id":19367,"name":"Summit Lake Trailhead","alt_name":"","type":"Trailhead","bathrooms":"yes","fee":"yes","water":"no","manager":"USFS Clear Creek Ranger District"}},{"type":"Feature","id":"trailheads_cotrex02192019.214","geometry":{"type":"Point","coordinates":[-104.87001289,39.49105825]},"geometry_name":"the_geom","properties":{"ogc_fid":214,"feature_id":206585,"place_id":21577,"name":"Glendale Farm Open Space Trailhead","alt_name":"","type":"Trailhead","bathrooms":"yes","fee":"no","water":"no","manager":"Douglas County Division of Open Space and Natural Resources"}},{"type":"Feature","id":"trailheads_cotrex02192019.215","geometry":{"type":"Point","coordinates":[-104.99992749,39.52423398]},"geometry_name":"the_geom","properties":{"ogc_fid":215,"feature_id":3508296,"place_id":21582,"name":"Pronghorn Park Trailhead","alt_name":"","type":"Trailhead","bathrooms":"yes","fee":"no","water":"yes","manager":"Highlands Ranch Metro District"}},{"type":"Feature","id":"trailheads_cotrex02192019.216","geometry":{"type":"Point","coordinates":[-104.92027695,39.51415526]},"geometry_name":"the_geom","properties":{"ogc_fid":216,"feature_id":207386,"place_id":21581,"name":"","alt_name":"","type":"Trailhead","bathrooms":"no","fee":"no","water":"no","manager":"Douglas County Division of Open Space and Natural Resources"}},{"type":"Feature","id":"trailheads_cotrex02192019.217","geometry":{"type":"Point","coordinates":[-104.88646045,39.52819522]},"geometry_name":"the_geom","properties":{"ogc_fid":217,"feature_id":206587,"place_id":21580,"name":"Bluffs Regional Park Trailhead","alt_name":"","type":"Trailhead","bathrooms":"yes","fee":"no","water":"no","manager":"Douglas County Division of Open Space and Natural Resources"}},{"type":"Feature","id":"trailheads_cotrex02192019.218","geometry":{"type":"Point","coordinates":[-104.91126695,39.49902602]},"geometry_name":"the_geom","properties":{"ogc_fid":218,"feature_id":207383,"place_id":21579,"name":"Backcountry Wilderness Area Trailhead","alt_name":"","type":"Trailhead","bathrooms":"yes","fee":"no","water":"no","manager":"Douglas County Division of Open Space and Natural Resources"}},{"type":"Feature","id":"trailheads_cotrex02192019.219","geometry":{"type":"Point","coordinates":[-104.72993672,38.23709072]},"geometry_name":"the_geom","properties":{"ogc_fid":219,"feature_id":204102,"place_id":2631,"name":"Red Gate Trailhead","alt_name":"","type":"Trailhead","bathrooms":"","fee":"","water":"","manager":"Lake Pueblo State Park"}},{"type":"Feature","id":"trailheads_cotrex02192019.220","geometry":{"type":"Point","coordinates":[-104.89979794,39.49122294]},"geometry_name":"the_geom","properties":{"ogc_fid":220,"feature_id":207380,"place_id":21578,"name":"Coyote Ridge Park Trailhead","alt_name":"","type":"Trailhead","bathrooms":"yes","fee":"no","water":"yes","manager":"Douglas County Division of Open Space and Natural Resources"}},{"type":"Feature","id":"trailheads_cotrex02192019.221","geometry":{"type":"Point","coordinates":[-104.94137557,39.50393937]},"geometry_name":"the_geom","properties":{"ogc_fid":221,"feature_id":197287,"place_id":1911,"name":"East-West (Grigs Rd) Trailhead","alt_name":"","type":"Trailhead","bathrooms":"yes","fee":"no","water":"no","manager":"Douglas County Division of Open Space and Natural Resources"}},{"type":"Feature","id":"trailheads_cotrex02192019.222","geometry":{"type":"Point","coordinates":[-105.59285611,39.64281792]},"geometry_name":"the_geom","properties":{"ogc_fid":222,"feature_id":200085,"place_id":2158,"name":"Lower Goliath Trailhead","alt_name":"","type":"Trailhead","bathrooms":"yes","fee":"yes","water":"no","manager":"USFS Clear Creek Ranger District"}},{"type":"Feature","id":"trailheads_cotrex02192019.223","geometry":{"type":"Point","coordinates":[-105.02760014,39.54628062]},"geometry_name":"the_geom","properties":{"ogc_fid":223,"feature_id":3508310,"place_id":21584,"name":"Redstone Park Trailhead","alt_name":"","type":"Trailhead","bathrooms":"yes","fee":"no","water":"yes","manager":"Highlands Ranch Metro District"}},{"type":"Feature","id":"trailheads_cotrex02192019.224","geometry":{"type":"Point","coordinates":[-104.88734885,39.54778682]},"geometry_name":"the_geom","properties":{"ogc_fid":224,"feature_id":61339,"place_id":81,"name":"Cook Creek Trailhead","alt_name":"","type":"Trailhead","bathrooms":"no","fee":"no","water":"no","manager":"South Suburban Parks and Recreation"}},{"type":"Feature","id":"trailheads_cotrex02192019.225","geometry":{"type":"Point","coordinates":[-104.92985588,39.60312647]},"geometry_name":"the_geom","properties":{"ogc_fid":225,"feature_id":61330,"place_id":72,"name":"Centennial Link Trailhead","alt_name":"","type":"Trailhead","bathrooms":"no","fee":"no","water":"no","manager":"South Suburban Parks and Recreation"}},{"type":"Feature","id":"trailheads_cotrex02192019.226","geometry":{"type":"Point","coordinates":[-105.60403769,39.63279299]},"geometry_name":"the_geom","properties":{"ogc_fid":226,"feature_id":63247,"place_id":1039,"name":"Upper Goliath Trailhead","alt_name":"","type":"Trailhead","bathrooms":"no","fee":"no","water":"no","manager":"USFS Clear Creek Ranger District"}},{"type":"Feature","id":"trailheads_cotrex02192019.227","geometry":{"type":"Point","coordinates":[-104.81319041,40.44083308]},"geometry_name":"the_geom","properties":{"ogc_fid":227,"feature_id":62423,"place_id":615,"name":"Poudre River Learning Center Trailhead","alt_name":"","type":"Trailhead","bathrooms":"yes","fee":"no","water":"no","manager":"City of Greeley"}},{"type":"Feature","id":"trailheads_cotrex02192019.228","geometry":{"type":"Point","coordinates":[-105.19046706,40.13564456]},"geometry_name":"the_geom","properties":{"ogc_fid":228,"feature_id":62753,"place_id":795,"name":"Lagerman Trailhead","alt_name":"","type":"Trailhead","bathrooms":"yes","fee":"no","water":"","manager":"Boulder County Parks and Open Space"}},{"type":"Feature","id":"trailheads_cotrex02192019.229","geometry":{"type":"Point","coordinates":[-105.02865768,39.58372662]},"geometry_name":"the_geom","properties":{"ogc_fid":229,"feature_id":61347,"place_id":89,"name":"South Platte Park Trailhead","alt_name":"Carson Nature Center Trailhead","type":"Trailhead","bathrooms":"yes","fee":"no","water":"no","manager":"South Suburban Parks and Recreation"}},{"type":"Feature","id":"trailheads_cotrex02192019.230","geometry":{"type":"Point","coordinates":[-105.02607682,39.59513445]},"geometry_name":"the_geom","properties":{"ogc_fid":230,"feature_id":61337,"place_id":79,"name":"Reynold's Landing Trailhead","alt_name":"","type":"Trailhead","bathrooms":"yes","fee":"no","water":"","manager":"South Suburban Parks and Recreation"}},{"type":"Feature","id":"trailheads_cotrex02192019.231","geometry":{"type":"Point","coordinates":[-105.04520647,39.56832248]},"geometry_name":"the_geom","properties":{"ogc_fid":231,"feature_id":61336,"place_id":78,"name":"Mary Carter Greenway Trailhead","alt_name":"","type":"Trailhead","bathrooms":"yes","fee":"no","water":"no","manager":"South Suburban Parks and Recreation"}},{"type":"Feature","id":"trailheads_cotrex02192019.232","geometry":{"type":"Point","coordinates":[-104.60546401,38.25322032]},"geometry_name":"the_geom","properties":{"ogc_fid":232,"feature_id":204902,"place_id":2648,"name":"Moffat Street Trailhead","alt_name":"","type":"Trailhead","bathrooms":"","fee":"","water":"","manager":"City of Pueblo"}},{"type":"Feature","id":"trailheads_cotrex02192019.233","geometry":{"type":"Point","coordinates":[-104.61714288,38.25976708]},"geometry_name":"the_geom","properties":{"ogc_fid":233,"feature_id":204904,"place_id":2647,"name":"Main Street Trailhead","alt_name":"","type":"Trailhead","bathrooms":"","fee":"","water":"","manager":"City of Pueblo"}},{"type":"Feature","id":"trailheads_cotrex02192019.234","geometry":{"type":"Point","coordinates":[-104.62320064,38.26671391]},"geometry_name":"the_geom","properties":{"ogc_fid":234,"feature_id":204901,"place_id":2646,"name":"Pearl Street Trailhead","alt_name":"","type":"Trailhead","bathrooms":"","fee":"","water":"","manager":"City of Pueblo"}},{"type":"Feature","id":"trailheads_cotrex02192019.235","geometry":{"type":"Point","coordinates":[-105.05685942,39.56729017]},"geometry_name":"the_geom","properties":{"ogc_fid":235,"feature_id":61335,"place_id":77,"name":"Mary Carter Greenway Trailhead","alt_name":"","type":"Trailhead","bathrooms":"no","fee":"no","water":"no","manager":"South Suburban Parks and Recreation"}},{"type":"Feature","id":"trailheads_cotrex02192019.236","geometry":{"type":"Point","coordinates":[-104.65763945,38.26573119]},"geometry_name":"the_geom","properties":{"ogc_fid":236,"feature_id":204894,"place_id":2664,"name":"City Park Trailhead","alt_name":"","type":"Trailhead","bathrooms":"","fee":"","water":"","manager":"City of Pueblo"}},{"type":"Feature","id":"trailheads_cotrex02192019.237","geometry":{"type":"Point","coordinates":[-105.5191968,39.98234726]},"geometry_name":"the_geom","properties":{"ogc_fid":237,"feature_id":62754,"place_id":796,"name":"Caribou Ranch Trailhead","alt_name":"","type":"Trailhead","bathrooms":"yes","fee":"no","water":"","manager":"Boulder County Parks and Open Space"}},{"type":"Feature","id":"trailheads_cotrex02192019.238","geometry":{"type":"Point","coordinates":[-104.6330371,38.26959537]},"geometry_name":"the_geom","properties":{"ogc_fid":238,"feature_id":204893,"place_id":2663,"name":"Dutch Clark Stadium Trailhead","alt_name":"","type":"Trailhead","bathrooms":"","fee":"","water":"","manager":"City of Pueblo"}},{"type":"Feature","id":"trailheads_cotrex02192019.239","geometry":{"type":"Point","coordinates":[-104.60163488,38.29825467]},"geometry_name":"the_geom","properties":{"ogc_fid":239,"feature_id":204900,"place_id":2662,"name":"Haaff Elementary Trailhead","alt_name":"","type":"Trailhead","bathrooms":"","fee":"","water":"","manager":"City of Pueblo"}},{"type":"Feature","id":"trailheads_cotrex02192019.240","geometry":{"type":"Point","coordinates":[-104.60206001,38.30562547]},"geometry_name":"the_geom","properties":{"ogc_fid":240,"feature_id":204899,"place_id":2661,"name":"Montebello Trailhead","alt_name":"","type":"Trailhead","bathrooms":"","fee":"","water":"","manager":"City of Pueblo"}},{"type":"Feature","id":"trailheads_cotrex02192019.241","geometry":{"type":"Point","coordinates":[-104.60095117,38.28448796]},"geometry_name":"the_geom","properties":{"ogc_fid":241,"feature_id":204898,"place_id":2660,"name":"Brickyards Trailhead","alt_name":"","type":"Trailhead","bathrooms":"","fee":"","water":"","manager":"City of Pueblo"}},{"type":"Feature","id":"trailheads_cotrex02192019.242","geometry":{"type":"Point","coordinates":[-104.6020206,38.27806825]},"geometry_name":"the_geom","properties":{"ogc_fid":242,"feature_id":204896,"place_id":2658,"name":"East 13th Street Trailhead","alt_name":"","type":"Trailhead","bathrooms":"","fee":"","water":"","manager":"City of Pueblo"}},{"type":"Feature","id":"trailheads_cotrex02192019.243","geometry":{"type":"Point","coordinates":[-104.58964181,38.25607278]},"geometry_name":"the_geom","properties":{"ogc_fid":243,"feature_id":204895,"place_id":2657,"name":"Confluence Trailhead","alt_name":"","type":"Trailhead","bathrooms":"","fee":"","water":"","manager":"City of Pueblo"}},{"type":"Feature","id":"trailheads_cotrex02192019.244","geometry":{"type":"Point","coordinates":[-105.03879021,39.60750221]},"geometry_name":"the_geom","properties":{"ogc_fid":244,"feature_id":61346,"place_id":88,"name":"Columbine Trailhead","alt_name":"","type":"Trailhead","bathrooms":"no","fee":"no","water":"no","manager":"South Suburban Parks and Recreation"}},{"type":"Feature","id":"trailheads_cotrex02192019.245","geometry":{"type":"Point","coordinates":[-105.50802416,39.97927038]},"geometry_name":"the_geom","properties":{"ogc_fid":245,"feature_id":62755,"place_id":797,"name":"Mud Lake Trailhead","alt_name":"","type":"Trailhead","bathrooms":"yes","fee":"no","water":"","manager":"Boulder County Parks and Open Space"}},{"type":"Feature","id":"trailheads_cotrex02192019.246","geometry":{"type":"Point","coordinates":[-105.01575702,39.64260307]},"geometry_name":"the_geom","properties":{"ogc_fid":246,"feature_id":61344,"place_id":86,"name":"Mary Carter Greenway Trailhead","alt_name":"","type":"Trailhead","bathrooms":"no","fee":"no","water":"no","manager":"South Suburban Parks and Recreation"}},{"type":"Feature","id":"trailheads_cotrex02192019.247","geometry":{"type":"Point","coordinates":[-106.39449116,40.10402212]},"geometry_name":"the_geom","properties":{"ogc_fid":247,"feature_id":202606,"place_id":2521,"name":"Wolford Mountain South Trailhead","alt_name":"","type":"Trailhead","bathrooms":"no","fee":"no","water":"no","manager":"BLM Kremmling Field Office"}},{"type":"Feature","id":"trailheads_cotrex02192019.248","geometry":{"type":"Point","coordinates":[-108.12807659,37.75728852]},"geometry_name":"the_geom","properties":{"ogc_fid":248,"feature_id":61618,"place_id":210,"name":"Geyser Spring Trailhead","alt_name":"","type":"Trailhead","bathrooms":"no","fee":"no","water":"no","manager":"USFS Dolores Ranger District"}},{"type":"Feature","id":"trailheads_cotrex02192019.249","geometry":{"type":"Point","coordinates":[-104.70838718,38.26804552]},"geometry_name":"the_geom","properties":{"ogc_fid":249,"feature_id":205278,"place_id":2681,"name":"Anticline Trailhead","alt_name":"","type":"Trailhead","bathrooms":"","fee":"","water":"","manager":"Lake Pueblo State Park"}},{"type":"Feature","id":"trailheads_cotrex02192019.250","geometry":{"type":"Point","coordinates":[-104.78823507,40.4424117]},"geometry_name":"the_geom","properties":{"ogc_fid":250,"feature_id":62424,"place_id":616,"name":"Signature Bluffs Natural Area Trailhead","alt_name":"","type":"Trailhead","bathrooms":"yes","fee":"no","water":"no","manager":"City of Greeley"}},{"type":"Feature","id":"trailheads_cotrex02192019.251","geometry":{"type":"Point","coordinates":[-106.89929094,38.87276612]},"geometry_name":"the_geom","properties":{"ogc_fid":251,"feature_id":205503,"place_id":2706,"name":"Strand Hill Trailhead","alt_name":"","type":"Trailhead","bathrooms":"","fee":"","water":"","manager":"USFS Gunnison Ranger District"}},{"type":"Feature","id":"trailheads_cotrex02192019.252","geometry":{"type":"Point","coordinates":[-105.12728837,39.98295365]},"geometry_name":"the_geom","properties":{"ogc_fid":252,"feature_id":62735,"place_id":777,"name":"Harney-Lastoka Trailhead","alt_name":"","type":"Trailhead","bathrooms":"yes","fee":"no","water":"","manager":"Boulder County Parks and Open Space"}},{"type":"Feature","id":"trailheads_cotrex02192019.253","geometry":{"type":"Point","coordinates":[-104.87987303,39.81451921]},"geometry_name":"the_geom","properties":{"ogc_fid":253,"feature_id":205693,"place_id":2715,"name":"Gateway Trailhead","alt_name":"","type":"Trailhead","bathrooms":"yes","fee":"","water":"","manager":"Rocky Mountain Arsenal National Wildlife Refuge"}},{"type":"Feature","id":"trailheads_cotrex02192019.254","geometry":{"type":"Point","coordinates":[-105.16668211,39.92879778]},"geometry_name":"the_geom","properties":{"ogc_fid":254,"feature_id":62741,"place_id":783,"name":"Coalton Trailhead","alt_name":"","type":"Trailhead","bathrooms":"yes","fee":"no","water":"","manager":"Boulder County Parks and Open Space"}},{"type":"Feature","id":"trailheads_cotrex02192019.255","geometry":{"type":"Point","coordinates":[-104.79795484,39.57838403]},"geometry_name":"the_geom","properties":{"ogc_fid":255,"feature_id":205678,"place_id":2726,"name":"Broncos Parkway Trailhead","alt_name":"","type":"Trailhead","bathrooms":"yes","fee":"","water":"","manager":"Arapahoe County Open Spaces"}},{"type":"Feature","id":"trailheads_cotrex02192019.256","geometry":{"type":"Point","coordinates":[-104.88955201,39.67097669]},"geometry_name":"the_geom","properties":{"ogc_fid":256,"feature_id":205680,"place_id":2724,"name":"Wabash Trailhead","alt_name":"","type":"Trailhead","bathrooms":"yes","fee":"","water":"","manager":"Arapahoe County Open Spaces"}},{"type":"Feature","id":"trailheads_cotrex02192019.257","geometry":{"type":"Point","coordinates":[-105.17414098,40.14103097]},"geometry_name":"the_geom","properties":{"ogc_fid":257,"feature_id":61211,"place_id":3,"name":"Blue Skies Park Trailhead","alt_name":"","type":"Trailhead","bathrooms":"yes","fee":"no","water":"","manager":"City of Longmont Parks, Open Space and Trails"}},{"type":"Feature","id":"trailheads_cotrex02192019.258","geometry":{"type":"Point","coordinates":[-105.13733674,40.16942453]},"geometry_name":"the_geom","properties":{"ogc_fid":258,"feature_id":61225,"place_id":17,"name":"Golden Ponds Park Trailhead","alt_name":"","type":"Trailhead","bathrooms":"yes","fee":"no","water":"","manager":"City of Longmont Parks, Open Space and Trails"}},{"type":"Feature","id":"trailheads_cotrex02192019.259","geometry":{"type":"Point","coordinates":[-105.14663682,39.64987972]},"geometry_name":"the_geom","properties":{"ogc_fid":259,"feature_id":250374,"place_id":2892,"name":"Pelican Point Trailhead","alt_name":"","type":"Trailhead","bathrooms":"no","fee":"yes","water":"no","manager":"City of Lakewood"}},{"type":"Feature","id":"trailheads_cotrex02192019.260","geometry":{"type":"Point","coordinates":[-105.14201216,39.65591048]},"geometry_name":"the_geom","properties":{"ogc_fid":260,"feature_id":250385,"place_id":2899,"name":"Bear Creek Lake Trailhead","alt_name":"","type":"Trailhead","bathrooms":"yes","fee":"yes","water":"yes","manager":"City of Lakewood"}},{"type":"Feature","id":"trailheads_cotrex02192019.261","geometry":{"type":"Point","coordinates":[-105.2007593,40.06300048]},"geometry_name":"the_geom","properties":{"ogc_fid":261,"feature_id":62737,"place_id":779,"name":"Twin Lakes Trailhead","alt_name":"","type":"Trailhead","bathrooms":"no","fee":"no","water":"","manager":"Boulder County Parks and Open Space"}},{"type":"Feature","id":"trailheads_cotrex02192019.262","geometry":{"type":"Point","coordinates":[-105.15578014,39.65327353]},"geometry_name":"the_geom","properties":{"ogc_fid":262,"feature_id":250384,"place_id":2898,"name":"North Park Trailhead","alt_name":"","type":"Trailhead","bathrooms":"yes","fee":"yes","water":"","manager":"City of Lakewood"}},{"type":"Feature","id":"trailheads_cotrex02192019.263","geometry":{"type":"Point","coordinates":[-105.14858061,39.65330244]},"geometry_name":"the_geom","properties":{"ogc_fid":263,"feature_id":250375,"place_id":2893,"name":"Fishermans Trailhead","alt_name":"","type":"Trailhead","bathrooms":"yes","fee":"yes","water":"yes","manager":"City of Lakewood"}},{"type":"Feature","id":"trailheads_cotrex02192019.264","geometry":{"type":"Point","coordinates":[-105.16934604,39.94908293]},"geometry_name":"the_geom","properties":{"ogc_fid":264,"feature_id":198990,"place_id":2005,"name":"Thomas Street Trailhead","alt_name":"","type":"Trailhead","bathrooms":"yes","fee":"no","water":"","manager":"Boulder County Parks and Open Space"}},{"type":"Feature","id":"trailheads_cotrex02192019.265","geometry":{"type":"Point","coordinates":[-105.15442348,39.64841233]},"geometry_name":"the_geom","properties":{"ogc_fid":265,"feature_id":203706,"place_id":2626,"name":"Bear Creek Lake Equestrian Trailhead","alt_name":"","type":"Trailhead","bathrooms":"yes","fee":"yes","water":"no","manager":"City of Lakewood"}},{"type":"Feature","id":"trailheads_cotrex02192019.266","geometry":{"type":"Point","coordinates":[-107.31498899,37.93944637]},"geometry_name":"the_geom","properties":{"ogc_fid":266,"feature_id":205877,"place_id":2758,"name":"Cinnamon Pass ATV Staging Area","alt_name":"","type":"Trailhead","bathrooms":"no","fee":"","water":"no","manager":"BLM Gunnison Field Office"}},{"type":"Feature","id":"trailheads_cotrex02192019.267","geometry":{"type":"Point","coordinates":[-105.16226641,39.65241386]},"geometry_name":"the_geom","properties":{"ogc_fid":267,"feature_id":250383,"place_id":2897,"name":"Bear Creek Trailhead","alt_name":"","type":"Trailhead","bathrooms":"yes","fee":"yes","water":"","manager":"City of Lakewood"}},{"type":"Feature","id":"trailheads_cotrex02192019.268","geometry":{"type":"Point","coordinates":[-105.17452147,39.6514901]},"geometry_name":"the_geom","properties":{"ogc_fid":268,"feature_id":250377,"place_id":2895,"name":"Mt. Carbon Trailhead","alt_name":"","type":"Trailhead","bathrooms":"yes","fee":"yes","water":"","manager":"City of Lakewood"}},{"type":"Feature","id":"trailheads_cotrex02192019.269","geometry":{"type":"Point","coordinates":[-105.17292124,39.64917808]},"geometry_name":"the_geom","properties":{"ogc_fid":269,"feature_id":250376,"place_id":2894,"name":"Owl Trailhead","alt_name":"","type":"Trailhead","bathrooms":"yes","fee":"yes","water":"yes","manager":"City of Lakewood"}},{"type":"Feature","id":"trailheads_cotrex02192019.270","geometry":{"type":"Point","coordinates":[-106.40508356,39.72035574]},"geometry_name":"the_geom","properties":{"ogc_fid":270,"feature_id":2363450,"place_id":20804,"name":"Piney Lake Trailhead","alt_name":"","type":"Trailhead","bathrooms":"no","fee":"no","water":"no","manager":"USFS Eagle-Holy Cross Ranger District"}},{"type":"Feature","id":"trailheads_cotrex02192019.271","geometry":{"type":"Point","coordinates":[-105.16821646,39.65224494]},"geometry_name":"the_geom","properties":{"ogc_fid":271,"feature_id":250382,"place_id":2896,"name":"Mt. Carbon North Trailhead","alt_name":"","type":"Trailhead","bathrooms":"yes","fee":"yes","water":"yes","manager":"City of Lakewood"}},{"type":"Feature","id":"trailheads_cotrex02192019.272","geometry":{"type":"Point","coordinates":[-105.38482385,39.73569305]},"geometry_name":"the_geom","properties":{"ogc_fid":272,"feature_id":247587,"place_id":2842,"name":"Cannonball Flats Trailhead","alt_name":"","type":"Trailhead","bathrooms":"no","fee":"no","water":"no","manager":"Jefferson County Open Space Parks and Trails"}},{"type":"Feature","id":"trailheads_cotrex02192019.273","geometry":{"type":"Point","coordinates":[-105.28938183,40.21201148]},"geometry_name":"the_geom","properties":{"ogc_fid":273,"feature_id":62610,"place_id":702,"name":"Bitterbrush Trailhead","alt_name":"","type":"Trailhead","bathrooms":"yes","fee":"no","water":"","manager":"Boulder County Parks and Open Space"}},{"type":"Feature","id":"trailheads_cotrex02192019.274","geometry":{"type":"Point","coordinates":[-107.37352533,40.57138889]},"geometry_name":"the_geom","properties":{"ogc_fid":274,"feature_id":1824930,"place_id":19512,"name":"East Beach Trailhead","alt_name":"","type":"Trailhead","bathrooms":"yes","fee":"yes","water":"no","manager":"Elkhead Reservoir State Park"}},{"type":"Feature","id":"trailheads_cotrex02192019.275","geometry":{"type":"Point","coordinates":[-105.53319578,40.08010368]},"geometry_name":"the_geom","properties":{"ogc_fid":275,"feature_id":206180,"place_id":2786,"name":"Brainard Gateway/Red Rock Trailhead","alt_name":"","type":"Trailhead","bathrooms":"yes","fee":"no","water":"no","manager":"USFS Boulder Ranger District"}},{"type":"Feature","id":"trailheads_cotrex02192019.276","geometry":{"type":"Point","coordinates":[-104.90953885,40.46405944]},